{
  "last_updated": 1759735907,
  "ttl": 3600,
  "version": "2.3",
  "data": {
    "stations": [
      {
        "station_id": "andermatt_andermatt_bahnhofstrasse_93ff82",
        "name": "Andermatt -  Bahnhofstrasse",
        "lat": 46.63695,
        "lon": 8.59438,
        "region_id": "Andermatt",
        "is_virtual_station": true,
        "capacity": 7
      },
      {
        "station_id": "andermatt_andermatt_gemsstockbahn_parkplatz_ee017a",
        "name": "Andermatt  - Gemsstockbahn Parkplatz",
        "lat": 46.63211,
        "lon": 8.59216,
        "region_id": "Andermatt",
        "is_virtual_station": true,
        "capacity": 7
      },
      {
        "station_id": "andermatt_andermatt_altkirch_64886e",
        "name": "Andermatt - Altkirch",
        "lat": 46.64003,
        "lon": 8.59364,
        "region_id": "Andermatt",
        "is_virtual_station": true,
        "capacity": 7
      },
      {
        "station_id": "andermatt_andermatt_bodenstrasse_20_fafa23",
        "name": "Andermatt - Bodenstrasse 20",
        "lat": 46.63481,
        "lon": 8.59053,
        "region_id": "Andermatt",
        "is_virtual_station": true,
        "capacity": 7
      },
      {
        "station_id": "andermatt_andermatt_golfplatz_cotton_club_84216e",
        "name": "Andermatt - Golfplatz/Cotton Club",
        "lat": 46.63433,
        "lon": 8.58384,
        "region_id": "Andermatt",
        "is_virtual_station": true,
        "capacity": 7
      },
      {
        "station_id": "andermatt_andermatt_hotel_drei_k_nige_ac0e55",
        "name": "Andermatt - Hotel Drei Könige",
        "lat": 46.63395,
        "lon": 8.59762,
        "region_id": "Andermatt",
        "is_virtual_station": true,
        "capacity": 7
      },
      {
        "station_id": "andermatt_andermatt_hotel_radisson_blu_zone_1_3958f1",
        "name": "Andermatt - Hotel Radisson Blu. Zone 1",
        "lat": 46.64001,
        "lon": 8.59153,
        "region_id": "Andermatt",
        "is_virtual_station": true,
        "capacity": 7
      },
      {
        "station_id": "andermatt_andermatt_hotel_the_chedi_2f6f49",
        "name": "Andermatt - Hotel The Chedi",
        "lat": 46.63626,
        "lon": 8.59478,
        "region_id": "Andermatt",
        "is_virtual_station": true,
        "capacity": 7
      },
      {
        "station_id": "andermatt_andermatt_konzerthalle_628032",
        "name": "Andermatt - Konzerthalle",
        "lat": 46.64078,
        "lon": 8.59109,
        "region_id": "Andermatt",
        "is_virtual_station": true,
        "capacity": 7
      },
      {
        "station_id": "andermatt_n_tschen_bahnhof_mgb_60d11a",
        "name": "Nätschen - Bahnhof MGB",
        "lat": 46.64204,
        "lon": 8.6109,
        "region_id": "Andermatt",
        "is_virtual_station": true,
        "capacity": 7
      },
      {
        "station_id": "andermatt_andermatt_oberalpstrasse_zufahrt_zu_33_bis_46_af65f5",
        "name": "Andermatt - Oberalpstrasse Zufahrt zu 33 bis 46",
        "lat": 46.63524,
        "lon": 8.5994,
        "region_id": "Andermatt",
        "is_virtual_station": true,
        "capacity": 7
      },
      {
        "station_id": "andermatt_andermatt_ref_kirche_a05b37",
        "name": "Andermatt - ref. Kirche",
        "lat": 46.63512,
        "lon": 8.59265,
        "region_id": "Andermatt",
        "is_virtual_station": true,
        "capacity": 7
      },
      {
        "station_id": "andermatt_andermatt_reuss_parking_zone_1_7b95a2",
        "name": "Andermatt - Reuss Parking. Zone 1",
        "lat": 46.63986,
        "lon": 8.59185,
        "region_id": "Andermatt",
        "is_virtual_station": true,
        "capacity": 7
      },
      {
        "station_id": "andermatt_andermatt_reussbr_cke_marcht_22191b",
        "name": "Andermatt - Reussbrücke/Marcht",
        "lat": 46.62667,
        "lon": 8.58065,
        "region_id": "Andermatt",
        "is_virtual_station": true,
        "capacity": 7
      },
      {
        "station_id": "andermatt_andermatt_sch_llenen_feuerstelle_geissenplatz_f4defd",
        "name": "Andermatt - Schöllenen/Feuerstelle Geissenplatz",
        "lat": 46.64916,
        "lon": 8.58819,
        "region_id": "Andermatt",
        "is_virtual_station": true,
        "capacity": 7
      },
      {
        "station_id": "andermatt_andermatt_zufahrt_golfplatz_4597ac",
        "name": "Andermatt - Zufahrt Golfplatz",
        "lat": 46.63208,
        "lon": 8.58751,
        "region_id": "Andermatt",
        "is_virtual_station": true,
        "capacity": 7
      },
      {
        "station_id": "andermatt_g_schenen_bahnhof_1ee1aa",
        "name": "Göschenen - Bahnhof",
        "lat": 46.66583,
        "lon": 8.58837,
        "region_id": "Andermatt",
        "is_virtual_station": true,
        "capacity": 7
      },
      {
        "station_id": "andermatt_g_schenen_h_derlibr_cke_f04b2d",
        "name": "Göschenen - Häderlibrücke",
        "lat": 46.65854,
        "lon": 8.58502,
        "region_id": "Andermatt",
        "is_virtual_station": true,
        "capacity": 7
      },
      {
        "station_id": "andermatt_g_schenen_hotel_r_ssli_81f383",
        "name": "Göschenen - Hotel Rössli",
        "lat": 46.66801,
        "lon": 8.58756,
        "region_id": "Andermatt",
        "is_virtual_station": true,
        "capacity": 7
      },
      {
        "station_id": "andermatt_g_schenen_sbb_park_and_rail_1b3fc1",
        "name": "Göschenen - SBB Park and Rail",
        "lat": 46.668231203172,
        "lon": 8.5896461734423,
        "region_id": "Andermatt",
        "is_virtual_station": true,
        "capacity": 7
      },
      {
        "station_id": "andermatt_g_schenen_teufelsstein_4f8f0c",
        "name": "Göschenen - Teufelsstein",
        "lat": 46.67136,
        "lon": 8.5928,
        "region_id": "Andermatt",
        "is_virtual_station": true,
        "capacity": 7
      },
      {
        "station_id": "andermatt_g_schenen_wasen_1_d6b1e2",
        "name": "Göschenen - Wasen 1",
        "lat": 46.66848,
        "lon": 8.58377,
        "region_id": "Andermatt",
        "is_virtual_station": true,
        "capacity": 7
      },
      {
        "station_id": "andermatt_g_schenen_wasserwelten_73077d",
        "name": "Göschenen - Wasserwelten",
        "lat": 46.66719,
        "lon": 8.57536,
        "region_id": "Andermatt",
        "is_virtual_station": true,
        "capacity": 7
      },
      {
        "station_id": "andermatt_gotthardpass_brigg_abzweigung_alte_gotthardstrasse_abd906",
        "name": "Gotthardpass - Brigg/Abzweigung alte Gotthardstrasse",
        "lat": 46.58203,
        "lon": 8.55911,
        "region_id": "Andermatt",
        "is_virtual_station": true,
        "capacity": 7
      },
      {
        "station_id": "andermatt_gotthardm_tteli_gamssteg_pp_3d3ee4",
        "name": "Gotthardmätteli - Gamssteg PP",
        "lat": 46.60997,
        "lon": 8.57195,
        "region_id": "Andermatt",
        "is_virtual_station": true,
        "capacity": 7
      },
      {
        "station_id": "andermatt_gotthardpass_hinter_plangge_01b4bf",
        "name": "Gotthardpass - Hinter Plangge",
        "lat": 46.58335,
        "lon": 8.55814,
        "region_id": "Andermatt",
        "is_virtual_station": true,
        "capacity": 7
      },
      {
        "station_id": "andermatt_gotthardpass_in_den_b_chen_86dee8",
        "name": "Gotthardpass - In den Bächen",
        "lat": 46.59017,
        "lon": 8.55747,
        "region_id": "Andermatt",
        "is_virtual_station": true,
        "capacity": 7
      },
      {
        "station_id": "andermatt_gotthardm_tteli_rest_m_tteli_384f47",
        "name": "Gotthardmätteli - Rest. Mätteli",
        "lat": 46.59116,
        "lon": 8.56071,
        "region_id": "Andermatt",
        "is_virtual_station": true,
        "capacity": 7
      },
      {
        "station_id": "andermatt_gotthardpass_sustenegg_fd3567",
        "name": "Gotthardpass - Sustenegg",
        "lat": 46.576765,
        "lon": 8.55865,
        "region_id": "Andermatt",
        "is_virtual_station": true,
        "capacity": 7
      },
      {
        "station_id": "andermatt_gotthardpass_vorder_plangge_f700f3",
        "name": "Gotthardpass - Vorder Plangge",
        "lat": 46.585675,
        "lon": 8.557671,
        "region_id": "Andermatt",
        "is_virtual_station": true,
        "capacity": 7
      },
      {
        "station_id": "andermatt_hospental_bahnhof_3f32e8",
        "name": "Hospental - Bahnhof",
        "lat": 46.62098,
        "lon": 8.57081,
        "region_id": "Andermatt",
        "is_virtual_station": true,
        "capacity": 7
      },
      {
        "station_id": "andermatt_hospental_kreisel_gotthardpass_20e187",
        "name": "Hospental - Kreisel Gotthardpass",
        "lat": 46.61768,
        "lon": 8.56671,
        "region_id": "Andermatt",
        "is_virtual_station": true,
        "capacity": 7
      },
      {
        "station_id": "andermatt_hospental_parkplatz_skilift_winterhorn_ca2e62",
        "name": "Hospental - Parkplatz Skilift Winterhorn",
        "lat": 46.61698,
        "lon": 8.56311,
        "region_id": "Andermatt",
        "is_virtual_station": true,
        "capacity": 7
      },
      {
        "station_id": "andermatt_oberalppass_gand_135881",
        "name": "Oberalppass - Gand",
        "lat": 46.65702,
        "lon": 8.64492,
        "region_id": "Andermatt",
        "is_virtual_station": true,
        "capacity": 7
      },
      {
        "station_id": "andermatt_oberalppass_passh_he_3cff13",
        "name": "Oberalppass - Passhöhe",
        "lat": 46.65887,
        "lon": 8.67099,
        "region_id": "Andermatt",
        "is_virtual_station": true,
        "capacity": 7
      },
      {
        "station_id": "andermatt_oberalppass_sch_ni_seuchenkreuz_7dfe1a",
        "name": "Oberalppass - Schöni/Seuchenkreuz",
        "lat": 46.64497,
        "lon": 8.62473,
        "region_id": "Andermatt",
        "is_virtual_station": true,
        "capacity": 7
      },
      {
        "station_id": "andermatt_oberalppass_staumauer_oberalpsee_a14dc8",
        "name": "Oberalppass - Staumauer Oberalpsee",
        "lat": 46.65874,
        "lon": 8.6532,
        "region_id": "Andermatt",
        "is_virtual_station": true,
        "capacity": 7
      },
      {
        "station_id": "andermatt_realp_bahnhof_dampfbahn_furka_bergstrecke_3257ec",
        "name": "Realp - Bahnhof Dampfbahn Furka-Bergstrecke",
        "lat": 46.59552,
        "lon": 8.50093,
        "region_id": "Andermatt",
        "is_virtual_station": true,
        "capacity": 7
      },
      {
        "station_id": "andermatt_realp_christigmatte_steinbergen_048a82",
        "name": "Realp - Christigmatte/Steinbergen",
        "lat": 46.60329,
        "lon": 8.5165645,
        "region_id": "Andermatt",
        "is_virtual_station": true,
        "capacity": 7
      },
      {
        "station_id": "andermatt_realp_skilift_974b40",
        "name": "Realp - Skilift",
        "lat": 46.59806,
        "lon": 8.50161,
        "region_id": "Andermatt",
        "is_virtual_station": true,
        "capacity": 7
      },
      {
        "station_id": "andermatt_wassen_bahnhof_sbb_551b5b",
        "name": "Wassen - Bahnhof SBB",
        "lat": 46.70194,
        "lon": 8.59729,
        "region_id": "Andermatt",
        "is_virtual_station": true,
        "capacity": 7
      },
      {
        "station_id": "andermatt_wassen_standel_111268",
        "name": "Wassen - Standel",
        "lat": 46.683203,
        "lon": 8.594583,
        "region_id": "Andermatt",
        "is_virtual_station": true,
        "capacity": 7
      },
      {
        "station_id": "andermatt_wassen_wattingen_a5f95d",
        "name": "Wassen - Wattingen",
        "lat": 46.69509,
        "lon": 8.5961,
        "region_id": "Andermatt",
        "is_virtual_station": true,
        "capacity": 7
      },
      {
        "station_id": "andermatt_zumdorf_restaurant_zum_d_rfli_parkplatz_2c0b9b",
        "name": "Zumdorf - Restaurant Zum Dörfli/Parkplatz",
        "lat": 46.61096,
        "lon": 8.53706,
        "region_id": "Andermatt",
        "is_virtual_station": true,
        "capacity": 7
      },
      {
        "station_id": "andermatt_andermatt_autoverlad_b6e7c8",
        "name": "Andermatt - Autoverlad",
        "lat": 46.63564,
        "lon": 8.5901,
        "region_id": "Andermatt",
        "is_virtual_station": true,
        "capacity": 7
      },
      {
        "station_id": "andermatt_andermatt_golf_driving_range_5a526b",
        "name": "Andermatt - Golf Driving Range",
        "lat": 46.63682,
        "lon": 8.58549,
        "region_id": "Andermatt",
        "is_virtual_station": true,
        "capacity": 7
      },
      {
        "station_id": "andermatt_andermatt_gurschenalp_einstieg_66c8a1",
        "name": "Andermatt - Gurschenalp Einstieg",
        "lat": 46.631734397398,
        "lon": 8.5964858221512,
        "region_id": "Andermatt",
        "is_virtual_station": true,
        "capacity": 7
      },
      {
        "station_id": "andermatt_andermatt_himalaya_bar_cb9aa7",
        "name": "Andermatt - Himalaya Bar",
        "lat": 46.637305,
        "lon": 8.605583,
        "region_id": "Andermatt",
        "is_virtual_station": true,
        "capacity": 7
      },
      {
        "station_id": "andermatt_gotthardm_tteli_einstieg_wanderweg_winterhorn_cae2d9",
        "name": "Gotthardmätteli - Einstieg Wanderweg Winterhorn",
        "lat": 46.60918,
        "lon": 8.57021,
        "region_id": "Andermatt",
        "is_virtual_station": true,
        "capacity": 7
      },
      {
        "station_id": "andermatt_hospental_langenacher_9a5416",
        "name": "Hospental - Langenacher",
        "lat": 46.62226,
        "lon": 8.56933,
        "region_id": "Andermatt",
        "is_virtual_station": true,
        "capacity": 7
      },
      {
        "station_id": "andermatt_sedrun_bahnhof_zone_4_53d2bb",
        "name": "Sedrun - Bahnhof. Zone 4",
        "lat": 46.68107,
        "lon": 8.77008,
        "region_id": "Andermatt",
        "is_virtual_station": true,
        "capacity": 7
      },
      {
        "station_id": "andermatt_sedrun_camping_viva_zone_4_bf8b4e",
        "name": "Sedrun - Camping Viva. Zone 4",
        "lat": 46.67318,
        "lon": 8.75399,
        "region_id": "Andermatt",
        "is_virtual_station": true,
        "capacity": 7
      },
      {
        "station_id": "andermatt_sedrun_golfplatz_selva_zone_4_4ab7a7",
        "name": "Sedrun - Golfplatz Selva. Zone 4",
        "lat": 46.66078,
        "lon": 8.72332,
        "region_id": "Andermatt",
        "is_virtual_station": true,
        "capacity": 7
      },
      {
        "station_id": "andermatt_sedrun_hallenbad_zone_4_888beb",
        "name": "Sedrun - Hallenbad. Zone 4",
        "lat": 46.68173,
        "lon": 8.7732,
        "region_id": "Andermatt",
        "is_virtual_station": true,
        "capacity": 7
      },
      {
        "station_id": "andermatt_sedrun_lac_da_claus_zone_4_b125d4",
        "name": "Sedrun - Lac Da Claus. Zone 4",
        "lat": 46.67635,
        "lon": 8.78471,
        "region_id": "Andermatt",
        "is_virtual_station": true,
        "capacity": 7
      },
      {
        "station_id": "andermatt_sedrun_maighels_h_tte_startpunkt_zone_4_2ec879",
        "name": "Sedrun - Maighels Hütte Startpunkt. Zone 4",
        "lat": 46.64969,
        "lon": 8.68347,
        "region_id": "Andermatt",
        "is_virtual_station": true,
        "capacity": 7
      },
      {
        "station_id": "andermatt_sedrun_rueras_dorfzentrum_zone_4_b4ab41",
        "name": "Sedrun - Rueras Dorfzentrum. Zone 4",
        "lat": 46.67596,
        "lon": 8.75371,
        "region_id": "Andermatt",
        "is_virtual_station": true,
        "capacity": 7
      },
      {
        "station_id": "andermatt_sedrun_sedrun_dorfzentrum_zone_4_caa8c7",
        "name": "Sedrun - Sedrun Dorfzentrum. Zone 4",
        "lat": 46.67938,
        "lon": 8.77348,
        "region_id": "Andermatt",
        "is_virtual_station": true,
        "capacity": 7
      },
      {
        "station_id": "andermatt_sedrun_talstation_dieni_zone_4_ebecf0",
        "name": "Sedrun - Talstation Dieni. Zone 4",
        "lat": 46.66895,
        "lon": 8.74397,
        "region_id": "Andermatt",
        "is_virtual_station": true,
        "capacity": 7
      },
      {
        "station_id": "andermatt_sedrun_tschamut_dorf_zone_4_cc2cb3",
        "name": "Sedrun - Tschamut Dorf. Zone 4",
        "lat": 46.65527,
        "lon": 8.70876,
        "region_id": "Andermatt",
        "is_virtual_station": true,
        "capacity": 7
      },
      {
        "station_id": "andermatt_wassen_aegerstein_510cc7",
        "name": "Wassen - Aegerstein",
        "lat": 46.68988,
        "lon": 8.59434,
        "region_id": "Andermatt",
        "is_virtual_station": true,
        "capacity": 7
      },
      {
        "station_id": "andermatt_andermatt_bahnhofplatz_gleis_0_sportgesch_ft_9482f0",
        "name": "Andermatt - Bahnhofplatz/Gleis 0 Sportgeschäft",
        "lat": 46.63741,
        "lon": 8.59286,
        "region_id": "Andermatt",
        "is_virtual_station": true,
        "capacity": 7
      },
      {
        "station_id": "andermatt_andermatt_gemsstockstrasse_7_werkhof_gemeinde_65ceb0",
        "name": "Andermatt - Gemsstockstrasse 7/Werkhof Gemeinde",
        "lat": 46.63381,
        "lon": 8.59133,
        "region_id": "Andermatt",
        "is_virtual_station": true,
        "capacity": 7
      },
      {
        "station_id": "andermatt_andermatt_gotthardstrasse_64_hotel_crown_bbb471",
        "name": "Andermatt - Gotthardstrasse 64/Hotel Crown",
        "lat": 46.63335,
        "lon": 8.59641,
        "region_id": "Andermatt",
        "is_virtual_station": true,
        "capacity": 7
      },
      {
        "station_id": "andermatt_andermatt_gotthardstrasse_76_hotel_sonne_talmuseum_ursern_b70523",
        "name": "Andermatt - Gotthardstrasse 76/Hotel Sonne/Talmuseum Ursern",
        "lat": 46.63295,
        "lon": 8.59509,
        "region_id": "Andermatt",
        "is_virtual_station": true,
        "capacity": 7
      },
      {
        "station_id": "andermatt_andermatt_gotthardstrasse_24_post_seniorenzentrum_arzt_c6b59c",
        "name": "Andermatt - Gotthardstrasse 24/Post/Seniorenzentrum/Arzt",
        "lat": 46.63512,
        "lon": 8.59596,
        "region_id": "Andermatt",
        "is_virtual_station": true,
        "capacity": 7
      },
      {
        "station_id": "andermatt_andermatt_kirchgasse_10_gemeindehaus_kath_kirche_59a8df",
        "name": "Andermatt - Kirchgasse 10/Gemeindehaus/kath. Kirche",
        "lat": 46.63359,
        "lon": 8.59463,
        "region_id": "Andermatt",
        "is_virtual_station": true,
        "capacity": 7
      },
      {
        "station_id": "andermatt_andermatt_kreisel_oberalp_s_d_coop_86ab80",
        "name": "Andermatt - Kreisel Oberalp Süd/Coop",
        "lat": 46.63463,
        "lon": 8.59636,
        "region_id": "Andermatt",
        "is_virtual_station": true,
        "capacity": 7
      },
      {
        "station_id": "andermatt_andermatt_oberalpstrasse_91_wiler_839f66",
        "name": "Andermatt - Oberalpstrasse 91/Wiler",
        "lat": 46.636704,
        "lon": 8.60029,
        "region_id": "Andermatt",
        "is_virtual_station": true,
        "capacity": 7
      },
      {
        "station_id": "andermatt_andermatt_reuss_aussenparkplatz_1_2_974a85",
        "name": "Andermatt - Reuss/Aussenparkplatz 1 + 2",
        "lat": 46.63883,
        "lon": 8.5921,
        "region_id": "Andermatt",
        "is_virtual_station": true,
        "capacity": 7
      },
      {
        "station_id": "andermatt_andermatt_reuss_aussenparkplatz_3_14f39e",
        "name": "Andermatt - Reuss/Aussenparkplatz 3",
        "lat": 46.63849,
        "lon": 8.59114,
        "region_id": "Andermatt",
        "is_virtual_station": true,
        "capacity": 7
      },
      {
        "station_id": "andermatt_andermatt_reuss_zufahrt_ritomgasse_516eda",
        "name": "Andermatt - Reuss/Zufahrt Ritomgasse",
        "lat": 46.6409,
        "lon": 8.59012,
        "region_id": "Andermatt",
        "is_virtual_station": true,
        "capacity": 7
      },
      {
        "station_id": "andermatt_andermatt_talstation_n_tschen_g_tsch_express_81aa2d",
        "name": "Andermatt - Talstation Nätschen/Gütsch Express",
        "lat": 46.63765,
        "lon": 8.5953,
        "region_id": "Andermatt",
        "is_virtual_station": true,
        "capacity": 7
      },
      {
        "station_id": "andermatt_g_schenen_breiti_2_coop_fb3f16",
        "name": "Göschenen - Breiti 2/Coop",
        "lat": 46.66868,
        "lon": 8.58708,
        "region_id": "Andermatt",
        "is_virtual_station": true,
        "capacity": 7
      },
      {
        "station_id": "andermatt_g_schenen_gotthardstrase_200_hotel_krone_3bc09f",
        "name": "Göschenen - Gotthardstrase 200/Hotel Krone",
        "lat": 46.66669,
        "lon": 8.58826,
        "region_id": "Andermatt",
        "is_virtual_station": true,
        "capacity": 7
      },
      {
        "station_id": "andermatt_g_schenen_heuegg_spr_nggi_1c3f02",
        "name": "Göschenen - Heuegg/Spränggi",
        "lat": 46.65613,
        "lon": 8.58237,
        "region_id": "Andermatt",
        "is_virtual_station": true,
        "capacity": 7
      },
      {
        "station_id": "andermatt_andermatt_rest_chuchich_schtli_4eafb7",
        "name": "Andermatt - Rest. Chuchichäschtli",
        "lat": 46.6354,
        "lon": 8.60143,
        "region_id": "Andermatt",
        "is_virtual_station": true,
        "capacity": 7
      },
      {
        "station_id": "andermatt_gotthardm_tteli_hospentaltunnel_55f990",
        "name": "Gotthardmätteli - Hospentaltunnel",
        "lat": 46.61594,
        "lon": 8.57016,
        "region_id": "Andermatt",
        "is_virtual_station": true,
        "capacity": 7
      },
      {
        "station_id": "andermatt_hospental_gotthardstrasse_14_rest_r_ssli_47009b",
        "name": "Hospental - Gotthardstrasse 14 - Rest. Rössli",
        "lat": 46.61918,
        "lon": 8.56842,
        "region_id": "Andermatt",
        "is_virtual_station": true,
        "capacity": 7
      },
      {
        "station_id": "andermatt_hospental_gotthardstrasse_15_hotel_st_gotthard_462bc3",
        "name": "Hospental - Gotthardstrasse 15/Hotel St. Gotthard",
        "lat": 46.61947,
        "lon": 8.56926,
        "region_id": "Andermatt",
        "is_virtual_station": true,
        "capacity": 7
      },
      {
        "station_id": "andermatt_hospental_gotthardstrasse_23_dorfplatz_df85de",
        "name": "Hospental - Gotthardstrasse 23 - Dorfplatz",
        "lat": 46.618876,
        "lon": 8.567845,
        "region_id": "Andermatt",
        "is_virtual_station": true,
        "capacity": 7
      },
      {
        "station_id": "andermatt_oberalppass_bahnhof_schneeh_enerstockbahn_4e5eb8",
        "name": "Oberalppass - Bahnhof/Schneehüenerstockbahn",
        "lat": 46.6602,
        "lon": 8.67084,
        "region_id": "Andermatt",
        "is_virtual_station": true,
        "capacity": 7
      },
      {
        "station_id": "andermatt_oberalppass_galerie_oberalpsee_einstieg_schneeh_enerstock_448704",
        "name": "Oberalppass - Galerie Oberalpsee/Einstieg Schneehüenerstock",
        "lat": 46.66183,
        "lon": 8.66683,
        "region_id": "Andermatt",
        "is_virtual_station": true,
        "capacity": 7
      },
      {
        "station_id": "andermatt_realp_bahnhof_mgb_autoverlad_9af7e3",
        "name": "Realp - Bahnhof MGB/Autoverlad",
        "lat": 46.59882,
        "lon": 8.50322,
        "region_id": "Andermatt",
        "is_virtual_station": true,
        "capacity": 7
      },
      {
        "station_id": "andermatt_realp_furkastrasse_32_grotto_stella_d_oro_63e838",
        "name": "Realp - Furkastrasse 32/Grotto Stella d'Oro",
        "lat": 46.59972,
        "lon": 8.50332,
        "region_id": "Andermatt",
        "is_virtual_station": true,
        "capacity": 7
      },
      {
        "station_id": "andermatt_wassen_gotthardstrasse_26_russenhaus_mitarbeiter_asa_bd7d64",
        "name": "Wassen - Gotthardstrasse 26/Russenhaus (Mitarbeiter ASA)",
        "lat": 46.70692,
        "lon": 8.59979,
        "region_id": "Andermatt",
        "is_virtual_station": true,
        "capacity": 7
      },
      {
        "station_id": "andermatt_wassen_gotthardstrasse_71_post_d85dee",
        "name": "Wassen - Gotthardstrasse 71/Post",
        "lat": 46.70485,
        "lon": 8.59885,
        "region_id": "Andermatt",
        "is_virtual_station": true,
        "capacity": 7
      },
      {
        "station_id": "andermatt_wassen_sustenstrasse_12_gemeindehaus_08318b",
        "name": "Wassen - Sustenstrasse 12/Gemeindehaus",
        "lat": 46.70655,
        "lon": 8.59825,
        "region_id": "Andermatt",
        "is_virtual_station": true,
        "capacity": 7
      },
      {
        "station_id": "andermatt_andermatt_r_tistrasse_7_notfall_zone_1_aea62c",
        "name": "Andermatt - Rütistrasse 7 - Notfall. Zone 1",
        "lat": 46.63787,
        "lon": 8.59693,
        "region_id": "Andermatt",
        "is_virtual_station": true,
        "capacity": 7
      },
      {
        "station_id": "andermatt_tujetsch_einstieg_maighelsh_tte_tomasee_parkplatz_1990_m_m_zone_3_1c5846",
        "name": "Tujetsch - Einstieg Maighelshütte - Tomasee - Parkplatz 1990 m.ü.M. Zone 3",
        "lat": 46.65538,
        "lon": 8.67716,
        "region_id": "Andermatt",
        "is_virtual_station": true,
        "capacity": 7
      },
      {
        "station_id": "andermatt_gotthardpass_passh_he_232dff",
        "name": "Gotthardpass - Passhöhe",
        "lat": 46.55942,
        "lon": 8.56065,
        "region_id": "Andermatt",
        "is_virtual_station": true,
        "capacity": 7
      },
      {
        "station_id": "andermatt_unteralp_wendeplatz_rohr_d666ab",
        "name": "Unteralp - Wendeplatz Rohr",
        "lat": 46.62916,
        "lon": 8.61916,
        "region_id": "Andermatt",
        "is_virtual_station": true,
        "capacity": 7
      },
      {
        "station_id": "andermatt_andermatt_teufelsbr_cke_suworow_denkmal_57a316",
        "name": "Andermatt - Teufelsbrücke/Suworow Denkmal",
        "lat": 46.6469,
        "lon": 8.59045,
        "region_id": "Andermatt",
        "is_virtual_station": true,
        "capacity": 7
      },
      {
        "station_id": "andermatt_sedrun_bugnei_bahnof_caf8ee",
        "name": "Sedrun - Bugnei Bahnof",
        "lat": 46.68235,
        "lon": 8.7842703,
        "region_id": "Andermatt",
        "is_virtual_station": true,
        "capacity": 7
      },
      {
        "station_id": "andermatt_g_scheneralp_stausee_c195cf",
        "name": "Göscheneralp - Stausee",
        "lat": 46.64909,
        "lon": 8.4993,
        "region_id": "Andermatt",
        "is_virtual_station": true,
        "capacity": 7
      },
      {
        "station_id": "andermatt_tiefenbach_hotel_tiefenbach_f820a2",
        "name": "Tiefenbach - Hotel Tiefenbach",
        "lat": 46.59308,
        "lon": 8.46104,
        "region_id": "Andermatt",
        "is_virtual_station": true,
        "capacity": 7
      },
      {
        "station_id": "andermatt_tiefenbach_berghotel_galenstock_30340a",
        "name": "Tiefenbach - Berghotel Galenstock",
        "lat": 46.589781,
        "lon": 8.4802025,
        "region_id": "Andermatt",
        "is_virtual_station": true,
        "capacity": 7
      },
      {
        "station_id": "andermatt_nur_f_r_asa_ass_mitarbeiter_abfrutt_407f4e",
        "name": "NUR FÜR ASA/ASS MITARBEITER - Abfrutt",
        "lat": 46.6661072,
        "lon": 8.5720863,
        "region_id": "Andermatt",
        "is_virtual_station": true,
        "capacity": 7
      },
      {
        "station_id": "andermatt_salbit_grit_26f67a",
        "name": "Salbit - Grit",
        "lat": 46.6642338,
        "lon": 8.5579952,
        "region_id": "Andermatt",
        "is_virtual_station": true,
        "capacity": 7
      },
      {
        "station_id": "andermatt_salbit_salbit_f5920e",
        "name": "Salbit - Salbit",
        "lat": 46.6626045,
        "lon": 8.5529463,
        "region_id": "Andermatt",
        "is_virtual_station": true,
        "capacity": 7
      },
      {
        "station_id": "andermatt_salbit_wiggen_36c19a",
        "name": "Salbit - Wiggen",
        "lat": 46.659953,
        "lon": 8.5342097,
        "region_id": "Andermatt",
        "is_virtual_station": true,
        "capacity": 7
      },
      {
        "station_id": "andermatt_g_scheneralp_j_ntelboden_camping_085bcd",
        "name": "Göscheneralp - Jäntelboden/Camping",
        "lat": 46.6523699,
        "lon": 8.5232125,
        "region_id": "Andermatt",
        "is_virtual_station": true,
        "capacity": 7
      },
      {
        "station_id": "andermatt_g_scheneralp_gw_est_dbf585",
        "name": "Göscheneralp - Gwüest",
        "lat": 46.652563,
        "lon": 8.516391,
        "region_id": "Andermatt",
        "is_virtual_station": true,
        "capacity": 7
      },
      {
        "station_id": "andermatt_tiefenbach_hostetten_52db90",
        "name": "Tiefenbach - Hostetten",
        "lat": 46.5903591,
        "lon": 8.4926591,
        "region_id": "Andermatt",
        "is_virtual_station": true,
        "capacity": 7
      },
      {
        "station_id": "andermatt_realp_hotel_post_13b1c1",
        "name": "Realp - Hotel Post",
        "lat": 46.5986657,
        "lon": 8.5019482,
        "region_id": "Andermatt",
        "is_virtual_station": true,
        "capacity": 7
      },
      {
        "station_id": "andermatt_hospental_free_ride_hotel_cc307c",
        "name": "Hospental - Free Ride Hotel",
        "lat": 46.6184398,
        "lon": 8.5673294,
        "region_id": "Andermatt",
        "is_virtual_station": true,
        "capacity": 7
      },
      {
        "station_id": "andermatt_andermatt_bodenstrasse_35_718734",
        "name": "Andermatt - Bodenstrasse 35",
        "lat": 46.6329658,
        "lon": 8.5893382,
        "region_id": "Andermatt",
        "is_virtual_station": true,
        "capacity": 7
      },
      {
        "station_id": "andermatt_andermatt_gasthaus_skiclub_ff8665",
        "name": "Andermatt - Gasthaus Skiclub",
        "lat": 46.6326414,
        "lon": 8.593896,
        "region_id": "Andermatt",
        "is_virtual_station": true,
        "capacity": 7
      },
      {
        "station_id": "andermatt_andermatt_parkplatz_b_z_003a3f",
        "name": "Andermatt - Parkplatz Bäz",
        "lat": 46.638825,
        "lon": 8.586215,
        "region_id": "Andermatt",
        "is_virtual_station": true,
        "capacity": 7
      },
      {
        "station_id": "andermatt_g_schenen_parkplatz_europaplatz_f802a0",
        "name": "Göschenen - Parkplatz Europaplatz",
        "lat": 46.6701804,
        "lon": 8.5918633,
        "region_id": "Andermatt",
        "is_virtual_station": true,
        "capacity": 7
      },
      {
        "station_id": "andermatt_g_schenen_gotthardstrasse_215a_mitarbeiterhaus_zone_2_4d774a",
        "name": "Göschenen - Gotthardstrasse 215A, Mitarbeiterhaus. Zone 2",
        "lat": 46.6666875,
        "lon": 8.5881876,
        "region_id": "Andermatt",
        "is_virtual_station": true,
        "capacity": 7
      },
      {
        "station_id": "andermatt_g_schenen_abzweigung_bahnhof_mitarbeiterhaus_c63d72",
        "name": "Göschenen - Abzweigung Bahnhof/Mitarbeiterhaus",
        "lat": 46.6668009,
        "lon": 8.5888038,
        "region_id": "Andermatt",
        "is_virtual_station": true,
        "capacity": 7
      },
      {
        "station_id": "andermatt_lladepause_stop_b1d6e3",
        "name": "LLadepause stop",
        "lat": 46.63262,
        "lon": 8.59393,
        "region_id": "Andermatt",
        "is_virtual_station": true,
        "capacity": 7
      },
      {
        "station_id": "andermatt_realp_parkplatz_dfb_aa93bc",
        "name": "Realp - Parkplatz DFB",
        "lat": 46.59611,
        "lon": 8.50227,
        "region_id": "Andermatt",
        "is_virtual_station": true,
        "capacity": 7
      },
      {
        "station_id": "andermatt_andermatt_hotel_radisson_blu_4525ce",
        "name": "Andermatt - Hotel Radisson Blu",
        "lat": 46.639817,
        "lon": 8.591333,
        "region_id": "Andermatt",
        "is_virtual_station": true,
        "capacity": 7
      },
      {
        "station_id": "andermatt_andermatt_reuss_parking_f85663",
        "name": "Andermatt - Reuss Parking",
        "lat": 46.640169,
        "lon": 8.591916,
        "region_id": "Andermatt",
        "is_virtual_station": true,
        "capacity": 7
      },
      {
        "station_id": "andermatt_andermatt_driving_range_2ddcf0",
        "name": "Andermatt - Driving Range",
        "lat": 46.636817,
        "lon": 8.5854811,
        "region_id": "Andermatt",
        "is_virtual_station": true,
        "capacity": 7
      },
      {
        "station_id": "andermatt_andermatt_ara_parking_3cd617",
        "name": "Andermatt - ARA-Parking",
        "lat": 46.64164,
        "lon": 8.59108,
        "region_id": "Andermatt",
        "is_virtual_station": true,
        "capacity": 7
      },
      {
        "station_id": "andermatt_meien_f_rlauwi_442c1b",
        "name": "Meien - Fürlauwi",
        "lat": 46.72995,
        "lon": 8.54271,
        "region_id": "Andermatt",
        "is_virtual_station": true,
        "capacity": 7
      },
      {
        "station_id": "andermatt_gurtnellen_restaurant_bergheim_ae17bc",
        "name": "Gurtnellen - Restaurant Bergheim",
        "lat": 46.73788,
        "lon": 8.62752,
        "region_id": "Andermatt",
        "is_virtual_station": true,
        "capacity": 7
      },
      {
        "station_id": "andermatt_gurtnellen_stalden_a25e54",
        "name": "Gurtnellen - Stalden",
        "lat": 46.73402,
        "lon": 8.62616,
        "region_id": "Andermatt",
        "is_virtual_station": true,
        "capacity": 7
      },
      {
        "station_id": "andermatt_gurtnellen_feuerwehrlokal_ba84a6",
        "name": "Gurtnellen - Feuerwehrlokal",
        "lat": 46.72885,
        "lon": 8.62139,
        "region_id": "Andermatt",
        "is_virtual_station": true,
        "capacity": 7
      },
      {
        "station_id": "andermatt_gurtnellen_bahnhofplatz_b33954",
        "name": "Gurtnellen - Bahnhofplatz",
        "lat": 46.72874,
        "lon": 8.62199,
        "region_id": "Andermatt",
        "is_virtual_station": true,
        "capacity": 7
      },
      {
        "station_id": "andermatt_gurtnellen_gemeindeverwaltung_c98ee1",
        "name": "Gurtnellen - Gemeindeverwaltung",
        "lat": 46.72743,
        "lon": 8.62189,
        "region_id": "Andermatt",
        "is_virtual_station": true,
        "capacity": 7
      },
      {
        "station_id": "andermatt_gurtnellen_tankstelle_500bfa",
        "name": "Gurtnellen - Tankstelle",
        "lat": 46.73002,
        "lon": 8.62508,
        "region_id": "Andermatt",
        "is_virtual_station": true,
        "capacity": 7
      },
      {
        "station_id": "andermatt_gurtnellen_wiler_hauptstrasse_0e1e47",
        "name": "Gurtnellen - Wiler/Hauptstrasse",
        "lat": 46.727,
        "lon": 8.62186,
        "region_id": "Andermatt",
        "is_virtual_station": true,
        "capacity": 7
      },
      {
        "station_id": "andermatt_gurtnellen_fabrikstrasse_237176",
        "name": "Gurtnellen - Fabrikstrasse",
        "lat": 46.72768,
        "lon": 8.61973,
        "region_id": "Andermatt",
        "is_virtual_station": true,
        "capacity": 7
      },
      {
        "station_id": "andermatt_wassen_pfaffensprung_29d91b",
        "name": "Wassen - Pfaffensprung",
        "lat": 46.71425,
        "lon": 8.60847,
        "region_id": "Andermatt",
        "is_virtual_station": true,
        "capacity": 7
      },
      {
        "station_id": "andermatt_meien_husen_1b7081",
        "name": "Meien - Husen",
        "lat": 46.71818,
        "lon": 8.57401,
        "region_id": "Andermatt",
        "is_virtual_station": true,
        "capacity": 7
      },
      {
        "station_id": "andermatt_meien_d_rfli_5228fb",
        "name": "Meien - Dörfli",
        "lat": 46.72314,
        "lon": 8.55767,
        "region_id": "Andermatt",
        "is_virtual_station": true,
        "capacity": 7
      },
      {
        "station_id": "andermatt_meien_kapelle_629cef",
        "name": "Meien - Kapelle",
        "lat": 46.72591,
        "lon": 8.55217,
        "region_id": "Andermatt",
        "is_virtual_station": true,
        "capacity": 7
      },
      {
        "station_id": "andermatt_meien_f_rnigen_303db6",
        "name": "Meien - Färnigen",
        "lat": 46.73441,
        "lon": 8.52275,
        "region_id": "Andermatt",
        "is_virtual_station": true,
        "capacity": 7
      },
      {
        "station_id": "andermatt_meien_gorezmettlen_44bdc5",
        "name": "Meien - Gorezmettlen",
        "lat": 46.74375,
        "lon": 8.50823,
        "region_id": "Andermatt",
        "is_virtual_station": true,
        "capacity": 7
      },
      {
        "station_id": "andermatt_sustenpass_sustenbr_ggli_914a7d",
        "name": "Sustenpass - Sustenbrüggli",
        "lat": 46.74673,
        "lon": 8.46777,
        "region_id": "Andermatt",
        "is_virtual_station": true,
        "capacity": 7
      },
      {
        "station_id": "andermatt_gurtnellen_g_etli_steinbruch_cf9cbb",
        "name": "Gurtnellen - Güetli/Steinbruch",
        "lat": 46.73413,
        "lon": 8.63148,
        "region_id": "Andermatt",
        "is_virtual_station": true,
        "capacity": 7
      },
      {
        "station_id": "andermatt_gotthardm_tteli_aschlagboden_a4355a",
        "name": "Gotthardmätteli - Aschlagboden",
        "lat": 46.5992,
        "lon": 8.56288,
        "region_id": "Andermatt",
        "is_virtual_station": true,
        "capacity": 7
      },
      {
        "station_id": "andermatt_n_tschen_alphitt_61e39d",
        "name": "Nätschen - Alphittä",
        "lat": 46.64231,
        "lon": 8.61271,
        "region_id": "Andermatt",
        "is_virtual_station": true,
        "capacity": 7
      },
      {
        "station_id": "andermatt_tiefenbach_geren_4f7ec8",
        "name": "Tiefenbach - Geren",
        "lat": 46.58686,
        "lon": 8.49213,
        "region_id": "Andermatt",
        "is_virtual_station": true,
        "capacity": 7
      },
      {
        "station_id": "andermatt_vermigelboden_heuplangge_3bfd1a",
        "name": "Vermigelboden - Heuplangge",
        "lat": 46.62368,
        "lon": 8.63346,
        "region_id": "Andermatt",
        "is_virtual_station": true,
        "capacity": 7
      },
      {
        "station_id": "andermatt_vermigelboden_chalberbiel_1a088c",
        "name": "Vermigelboden - Chalberbiel",
        "lat": 46.59607,
        "lon": 8.659,
        "region_id": "Andermatt",
        "is_virtual_station": true,
        "capacity": 7
      },
      {
        "station_id": "andermatt_wittenwasseren_oberstafel_f45773",
        "name": "Wittenwasseren - Oberstafel",
        "lat": 46.54833,
        "lon": 8.50011,
        "region_id": "Andermatt",
        "is_virtual_station": true,
        "capacity": 7
      },
      {
        "station_id": "andermatt_wittenwasseren_ober_ch_seren_31123b",
        "name": "Wittenwasseren - Ober Chäseren",
        "lat": 46.56535,
        "lon": 8.49427,
        "region_id": "Andermatt",
        "is_virtual_station": true,
        "capacity": 7
      },
      {
        "station_id": "andermatt_tiefenbach_schweig_ab95c9",
        "name": "Tiefenbach - Schweig",
        "lat": 46.58018,
        "lon": 8.49247,
        "region_id": "Andermatt",
        "is_virtual_station": true,
        "capacity": 7
      },
      {
        "station_id": "andermatt_furkapass_furkablick_ea45ee",
        "name": "Furkapass - Furkablick",
        "lat": 46.57642,
        "lon": 8.42188,
        "region_id": "Andermatt",
        "is_virtual_station": true,
        "capacity": 7
      },
      {
        "station_id": "andermatt_furkapass_sidelenbach_084551",
        "name": "Furkapass - Sidelenbach",
        "lat": 46.58803,
        "lon": 8.43291,
        "region_id": "Andermatt",
        "is_virtual_station": true,
        "capacity": 7
      },
      {
        "station_id": "andermatt_wassen_gotthardstrasse_14_4a8d9d",
        "name": "Wassen - Gotthardstrasse 14",
        "lat": 46.70743,
        "lon": 8.60343,
        "region_id": "Andermatt",
        "is_virtual_station": true,
        "capacity": 7
      },
      {
        "station_id": "andermatt_g_schenen_mybuxi_zentrale_5025b7",
        "name": "Göschenen - mybuxi Zentrale",
        "lat": 46.66457,
        "lon": 8.58814,
        "region_id": "Andermatt",
        "is_virtual_station": true,
        "capacity": 7
      },
      {
        "station_id": "andermatt_sustenpass_passh_he_c608da",
        "name": "Sustenpass - Passhöhe",
        "lat": 46.7295,
        "lon": 8.44689,
        "region_id": "Andermatt",
        "is_virtual_station": true,
        "capacity": 7
      },
      {
        "station_id": "andermatt_n_tschen_wachthuus_35cd3b",
        "name": "Nätschen - Wachthuus",
        "lat": 46.65176,
        "lon": 8.61782,
        "region_id": "Andermatt",
        "is_virtual_station": true,
        "capacity": 7
      },
      {
        "station_id": "andermatt_gurtnellen_bifang_ccb654",
        "name": "Gurtnellen - Bifang",
        "lat": 46.74571,
        "lon": 8.63046,
        "region_id": "Andermatt",
        "is_virtual_station": true,
        "capacity": 7
      },
      {
        "station_id": "andermatt_b_z_festung_e50896",
        "name": "Bäz - Festung",
        "lat": 46.6442,
        "lon": 8.5803,
        "region_id": "Andermatt",
        "is_virtual_station": true,
        "capacity": 7
      },
      {
        "station_id": "andermatt_gotthard_hospiz_ddae18",
        "name": "Gotthard-Hospiz",
        "lat": 46.557695,
        "lon": 8.566208,
        "region_id": "Andermatt",
        "is_virtual_station": true,
        "capacity": 7
      },
      {
        "station_id": "belp_stettlen_bleichestrasse_21b_2c560a",
        "name": "Stettlen - Bleichestrasse 21b",
        "lat": 46.96055,
        "lon": 7.51681,
        "region_id": "Belp",
        "is_virtual_station": true,
        "capacity": 7
      },
      {
        "station_id": "belp_stettlen_bernstrasse_100_6f6363",
        "name": "Stettlen - Bernstrasse 100",
        "lat": 46.95833,
        "lon": 7.52501,
        "region_id": "Belp",
        "is_virtual_station": true,
        "capacity": 7
      },
      {
        "station_id": "belp_stettlen_bahnhof_c5a1f7",
        "name": "Stettlen - Bahnhof",
        "lat": 46.95701,
        "lon": 7.52378,
        "region_id": "Belp",
        "is_virtual_station": true,
        "capacity": 7
      },
      {
        "station_id": "belp_stettlen_alpenstrasse_25_e86108",
        "name": "Stettlen - Alpenstrasse 25",
        "lat": 46.96008,
        "lon": 7.52864,
        "region_id": "Belp",
        "is_virtual_station": true,
        "capacity": 7
      },
      {
        "station_id": "belp_stettlen_heckenweg_826ac1",
        "name": "Stettlen - Heckenweg",
        "lat": 46.96048,
        "lon": 7.52951,
        "region_id": "Belp",
        "is_virtual_station": true,
        "capacity": 7
      },
      {
        "station_id": "belp_stettlen_bernstrasse_105_21c182",
        "name": "Stettlen - Bernstrasse 105",
        "lat": 46.95793,
        "lon": 7.53137,
        "region_id": "Belp",
        "is_virtual_station": true,
        "capacity": 7
      },
      {
        "station_id": "belp_ostermundigen_obere_zollgasse_69e_62a246",
        "name": "Ostermundigen - Obere Zollgasse 69e",
        "lat": 46.95044,
        "lon": 7.48503,
        "region_id": "Belp",
        "is_virtual_station": true,
        "capacity": 7
      },
      {
        "station_id": "belp_ostermundigen_gerbestrasse_34_ce2498",
        "name": "Ostermundigen - Gerbestrasse 34",
        "lat": 46.95137,
        "lon": 7.48382,
        "region_id": "Belp",
        "is_virtual_station": true,
        "capacity": 7
      },
      {
        "station_id": "belp_ringstrasse_c60801",
        "name": "Ringstrasse",
        "lat": 46.95398,
        "lon": 7.48019,
        "region_id": "Belp",
        "is_virtual_station": true,
        "capacity": 7
      },
      {
        "station_id": "belp_ostermundigen_schermenweg_156_cead37",
        "name": "Ostermundigen - Schermenweg 156",
        "lat": 46.9594,
        "lon": 7.47996,
        "region_id": "Belp",
        "is_virtual_station": true,
        "capacity": 7
      },
      {
        "station_id": "belp_ostermundigen_wendehammer_akazienweg_10_27accc",
        "name": "Ostermundigen - Wendehammer Akazienweg 10",
        "lat": 46.95569,
        "lon": 7.50092,
        "region_id": "Belp",
        "is_virtual_station": true,
        "capacity": 7
      },
      {
        "station_id": "belp_ostermundigen_steinbruchweg_db4989",
        "name": "Ostermundigen - Steinbruchweg",
        "lat": 46.95113,
        "lon": 7.49101,
        "region_id": "Belp",
        "is_virtual_station": true,
        "capacity": 7
      },
      {
        "station_id": "belp_ostermundigen_bachstrasse_15_b8d67f",
        "name": "Ostermundigen - Bachstrasse 15",
        "lat": 46.95293,
        "lon": 7.4883,
        "region_id": "Belp",
        "is_virtual_station": true,
        "capacity": 7
      },
      {
        "station_id": "belp_ostermundigen_obere_zollgasse_47_cd3d62",
        "name": "Ostermundigen - Obere Zollgasse 47",
        "lat": 46.95255,
        "lon": 7.48542,
        "region_id": "Belp",
        "is_virtual_station": true,
        "capacity": 7
      },
      {
        "station_id": "belp_ostermundigen_oberdorfstrasse_34_0ad6ea",
        "name": "Ostermundigen - Oberdorfstrasse 34",
        "lat": 46.95431,
        "lon": 7.4876,
        "region_id": "Belp",
        "is_virtual_station": true,
        "capacity": 7
      },
      {
        "station_id": "belp_ostermundigen_zufahrt_parkstrasse_15_168a37",
        "name": "Ostermundigen - Zufahrt Parkstrasse 15",
        "lat": 46.95978,
        "lon": 7.48641,
        "region_id": "Belp",
        "is_virtual_station": true,
        "capacity": 7
      },
      {
        "station_id": "belp_ostermundigen_zufahrt_untere_zollgasse_28_cff1d9",
        "name": "Ostermundigen - Zufahrt Untere Zollgasse 28",
        "lat": 46.96096,
        "lon": 7.4881,
        "region_id": "Belp",
        "is_virtual_station": true,
        "capacity": 7
      },
      {
        "station_id": "belp_ostermundigen_forellstrasse_5_1de36c",
        "name": "Ostermundigen - Forellstrasse 5",
        "lat": 46.96125,
        "lon": 7.4839,
        "region_id": "Belp",
        "is_virtual_station": true,
        "capacity": 7
      },
      {
        "station_id": "belp_ostermundigen_kilchgrundstrasse_25_19be6c",
        "name": "Ostermundigen - Kilchgrundstrasse 25",
        "lat": 46.95928,
        "lon": 7.48394,
        "region_id": "Belp",
        "is_virtual_station": true,
        "capacity": 7
      },
      {
        "station_id": "belp_moosweg_03321d",
        "name": "Moosweg",
        "lat": 46.95838,
        "lon": 7.48485,
        "region_id": "Belp",
        "is_virtual_station": true,
        "capacity": 7
      },
      {
        "station_id": "belp_ostermundigen_sophiestrasse_1_359927",
        "name": "Ostermundigen - Sophiestrasse 1",
        "lat": 46.95778,
        "lon": 7.48629,
        "region_id": "Belp",
        "is_virtual_station": true,
        "capacity": 7
      },
      {
        "station_id": "belp_ostermundigen_unterdorfstrasse_27_f5c5b5",
        "name": "Ostermundigen - Unterdorfstrasse 27",
        "lat": 46.96135,
        "lon": 7.49055,
        "region_id": "Belp",
        "is_virtual_station": true,
        "capacity": 7
      },
      {
        "station_id": "belp_ostermundigen_nobsstrasse_025afb",
        "name": "Ostermundigen - Nobsstrasse",
        "lat": 46.95984,
        "lon": 7.49163,
        "region_id": "Belp",
        "is_virtual_station": true,
        "capacity": 7
      },
      {
        "station_id": "belp_r_tiweg_9_b95a92",
        "name": "Rütiweg 9",
        "lat": 46.95744,
        "lon": 7.50134,
        "region_id": "Belp",
        "is_virtual_station": true,
        "capacity": 7
      },
      {
        "station_id": "belp_ostermundigen_wendekreis_dr_zuber_strasse_2_b_b4cfc3",
        "name": "Ostermundigen - Wendekreis Dr. Zuber-Strasse 2 b",
        "lat": 46.96028,
        "lon": 7.49656,
        "region_id": "Belp",
        "is_virtual_station": true,
        "capacity": 7
      },
      {
        "station_id": "belp_ostermundigen_wiesenstrasse_40_856b8c",
        "name": "Ostermundigen - Wiesenstrasse 40",
        "lat": 46.96186,
        "lon": 7.49868,
        "region_id": "Belp",
        "is_virtual_station": true,
        "capacity": 7
      },
      {
        "station_id": "belp_ostermundigen_wendekreis_schiessplatzweg_43_085a19",
        "name": "Ostermundigen - Wendekreis Schiessplatzweg 43",
        "lat": 46.95905,
        "lon": 7.5037,
        "region_id": "Belp",
        "is_virtual_station": true,
        "capacity": 7
      },
      {
        "station_id": "belp_ostermundigen_gewerbestrasse_17_fd327b",
        "name": "Ostermundigen - Gewerbestrasse 17",
        "lat": 46.95271,
        "lon": 7.48359,
        "region_id": "Belp",
        "is_virtual_station": true,
        "capacity": 7
      },
      {
        "station_id": "belp_ostermundigen_nobsstrasse_14_3a6cb8",
        "name": "Ostermundigen - Nobsstrasse 14",
        "lat": 46.95942,
        "lon": 7.49326,
        "region_id": "Belp",
        "is_virtual_station": true,
        "capacity": 7
      },
      {
        "station_id": "belp_ostermundigen_zufahrt_werkhof_forelstrasse_5_08b803",
        "name": "Ostermundigen - Zufahrt Werkhof Forelstrasse 5",
        "lat": 46.96169,
        "lon": 7.48302,
        "region_id": "Belp",
        "is_virtual_station": true,
        "capacity": 7
      },
      {
        "station_id": "belp_bolligen_bantigen_374_b939b2",
        "name": "Bolligen - Bantigen 374",
        "lat": 46.97418,
        "lon": 7.51876,
        "region_id": "Belp",
        "is_virtual_station": true,
        "capacity": 7
      },
      {
        "station_id": "belp_bolligen_ferenberg_516_49eeb0",
        "name": "Bolligen - Ferenberg 516",
        "lat": 46.96732,
        "lon": 7.53157,
        "region_id": "Belp",
        "is_virtual_station": true,
        "capacity": 7
      },
      {
        "station_id": "belp_bolligen_stegackerweg_3dfb4e",
        "name": "Bolligen - Stegackerweg",
        "lat": 46.97459,
        "lon": 7.50075,
        "region_id": "Belp",
        "is_virtual_station": true,
        "capacity": 7
      },
      {
        "station_id": "belp_bolligen_geristein_265_b590ae",
        "name": "Bolligen - Geristein 265",
        "lat": 46.99401,
        "lon": 7.52493,
        "region_id": "Belp",
        "is_virtual_station": true,
        "capacity": 7
      },
      {
        "station_id": "belp_bern_upd_haupteingang_cb9cce",
        "name": "Bern - UPD Haupteingang",
        "lat": 46.96555,
        "lon": 7.48102,
        "region_id": "Belp",
        "is_virtual_station": true,
        "capacity": 7
      },
      {
        "station_id": "belp_stettlen_bleichestrasse_14_a9759c",
        "name": "Stettlen - Bleichestrasse 14",
        "lat": 46.95945,
        "lon": 7.51909,
        "region_id": "Belp",
        "is_virtual_station": true,
        "capacity": 7
      },
      {
        "station_id": "belp_stettlen_buchholzstrasse_53_821aba",
        "name": "Stettlen - Buchholzstrasse 53",
        "lat": 46.9619,
        "lon": 7.5227,
        "region_id": "Belp",
        "is_virtual_station": true,
        "capacity": 7
      },
      {
        "station_id": "belp_stettlen_kammenstrasse_1_01544e",
        "name": "Stettlen - Kammenstrasse 1",
        "lat": 46.96052,
        "lon": 7.52586,
        "region_id": "Belp",
        "is_virtual_station": true,
        "capacity": 7
      },
      {
        "station_id": "belp_stettlen_kammenstrasse_11_9d245d",
        "name": "Stettlen - Kammenstrasse 11",
        "lat": 46.96035,
        "lon": 7.5277,
        "region_id": "Belp",
        "is_virtual_station": true,
        "capacity": 7
      },
      {
        "station_id": "belp_stettlen_bergackerstrasse_136_92a67d",
        "name": "Stettlen - Bergackerstrasse 136",
        "lat": 46.9618,
        "lon": 7.52716,
        "region_id": "Belp",
        "is_virtual_station": true,
        "capacity": 7
      },
      {
        "station_id": "belp_stettlen_bergackerstrasse_45_5688db",
        "name": "Stettlen - Bergackerstrasse 45",
        "lat": 46.95864,
        "lon": 7.53137,
        "region_id": "Belp",
        "is_virtual_station": true,
        "capacity": 7
      },
      {
        "station_id": "belp_stettlen_zufahrt_bergackerstrasse_19_9a746a",
        "name": "Stettlen - Zufahrt Bergackerstrasse 19",
        "lat": 46.95898,
        "lon": 7.52924,
        "region_id": "Belp",
        "is_virtual_station": true,
        "capacity": 7
      },
      {
        "station_id": "belp_stettlen_bernstrasse_79_161324",
        "name": "Stettlen - Bernstrasse 79",
        "lat": 46.95831,
        "lon": 7.52673,
        "region_id": "Belp",
        "is_virtual_station": true,
        "capacity": 7
      },
      {
        "station_id": "belp_ostermundigen_bahnhof_3a2c5b",
        "name": "Ostermundigen - Bahnhof ",
        "lat": 46.95675,
        "lon": 7.48129,
        "region_id": "Belp",
        "is_virtual_station": true,
        "capacity": 7
      },
      {
        "station_id": "belp_ostermundigen_schermenweg_179_93fd9b",
        "name": "Ostermundigen - Schermenweg 179 ",
        "lat": 46.95756,
        "lon": 7.48083,
        "region_id": "Belp",
        "is_virtual_station": true,
        "capacity": 7
      },
      {
        "station_id": "belp_ostermundigen_milchstrasse_2_8_118dee",
        "name": "Ostermundigen - Milchstrasse 2-8",
        "lat": 46.96367,
        "lon": 7.48175,
        "region_id": "Belp",
        "is_virtual_station": true,
        "capacity": 7
      },
      {
        "station_id": "belp_ostermundigen_bolligenstrasse_42_99afac",
        "name": "Ostermundigen - Bolligenstrasse 42",
        "lat": 46.96664,
        "lon": 7.49122,
        "region_id": "Belp",
        "is_virtual_station": true,
        "capacity": 7
      },
      {
        "station_id": "belp_ostermundigen_wendehammer_r_tiweg_69_130e5b",
        "name": "Ostermundigen - Wendehammer Rütiweg 69 ",
        "lat": 46.95776,
        "lon": 7.50723,
        "region_id": "Belp",
        "is_virtual_station": true,
        "capacity": 7
      },
      {
        "station_id": "belp_ostermundigen_r_tiweg_138_ce8916",
        "name": "Ostermundigen - Rütiweg 138",
        "lat": 46.95513,
        "lon": 7.50641,
        "region_id": "Belp",
        "is_virtual_station": true,
        "capacity": 7
      },
      {
        "station_id": "belp_steinbruchweg_7_f3f341",
        "name": "Steinbruchweg 7",
        "lat": 46.95175,
        "lon": 7.49382,
        "region_id": "Belp",
        "is_virtual_station": true,
        "capacity": 7
      },
      {
        "station_id": "belp_ostermundigen_dennigkoferweg_201_72ee4b",
        "name": "Ostermundigen - Dennigkoferweg 201",
        "lat": 46.95197,
        "lon": 7.48952,
        "region_id": "Belp",
        "is_virtual_station": true,
        "capacity": 7
      },
      {
        "station_id": "belp_ostermundigen_poststrasse_25_38d245",
        "name": "Ostermundigen - Poststrasse 25",
        "lat": 46.95842,
        "lon": 7.48216,
        "region_id": "Belp",
        "is_virtual_station": true,
        "capacity": 7
      },
      {
        "station_id": "belp_ostermundigen_poststrasse_6_196652",
        "name": "Ostermundigen - Poststrasse 6",
        "lat": 46.95712,
        "lon": 7.4825,
        "region_id": "Belp",
        "is_virtual_station": true,
        "capacity": 7
      },
      {
        "station_id": "belp_blankweg_5d2578",
        "name": "Blankweg",
        "lat": 46.95607,
        "lon": 7.49246,
        "region_id": "Belp",
        "is_virtual_station": true,
        "capacity": 7
      },
      {
        "station_id": "belp_ostermundigen_schiessplatzweg_9_c8a177",
        "name": "Ostermundigen - Schiessplatzweg 9",
        "lat": 46.95822,
        "lon": 7.49842,
        "region_id": "Belp",
        "is_virtual_station": true,
        "capacity": 7
      },
      {
        "station_id": "belp_ostermundigen_lindenweg_16_0296fb",
        "name": "Ostermundigen - Lindenweg 16",
        "lat": 46.95735,
        "lon": 7.49913,
        "region_id": "Belp",
        "is_virtual_station": true,
        "capacity": 7
      },
      {
        "station_id": "belp_ostermundigen_bernstrasse_119_1c221e",
        "name": "Ostermundigen - Bernstrasse 119",
        "lat": 46.95919,
        "lon": 7.49748,
        "region_id": "Belp",
        "is_virtual_station": true,
        "capacity": 7
      },
      {
        "station_id": "belp_ostermundigen_zufahrt_dr_zuber_strasse_2_48bb9b",
        "name": "Ostermundigen - Zufahrt Dr. Zuber-Strasse 2",
        "lat": 46.95932,
        "lon": 7.49629,
        "region_id": "Belp",
        "is_virtual_station": true,
        "capacity": 7
      },
      {
        "station_id": "belp_ostermundigen_steingr_bliweg_8_5ab71a",
        "name": "Ostermundigen - Steingrübliweg 8",
        "lat": 46.96058,
        "lon": 7.5043,
        "region_id": "Belp",
        "is_virtual_station": true,
        "capacity": 7
      },
      {
        "station_id": "belp_ostermundigen_unterer_chaletweg_10ecb5",
        "name": "Ostermundigen - Unterer Chaletweg",
        "lat": 46.958,
        "lon": 7.50403,
        "region_id": "Belp",
        "is_virtual_station": true,
        "capacity": 7
      },
      {
        "station_id": "belp_ostermundigen_oberer_flurweg_18_f4ca89",
        "name": "Ostermundigen - Oberer Flurweg 18",
        "lat": 46.95424,
        "lon": 7.49396,
        "region_id": "Belp",
        "is_virtual_station": true,
        "capacity": 7
      },
      {
        "station_id": "belp_alpenstrasse_b_7f46aa",
        "name": "Alpenstrasse B",
        "lat": 46.95571,
        "lon": 7.48526,
        "region_id": "Belp",
        "is_virtual_station": true,
        "capacity": 7
      },
      {
        "station_id": "belp_deisswil_schwendistrasse_25_zid_bernapark_zufahrt_nord_02f325",
        "name": "Deisswil - Schwendistrasse 25 ZID Bernapark Zufahrt Nord",
        "lat": 46.96126,
        "lon": 7.51251,
        "region_id": "Belp",
        "is_virtual_station": true,
        "capacity": 7
      },
      {
        "station_id": "belp_deisswil_bahnhof_a5432a",
        "name": "Deisswil - Bahnhof ",
        "lat": 46.95745,
        "lon": 7.51371,
        "region_id": "Belp",
        "is_virtual_station": true,
        "capacity": 7
      },
      {
        "station_id": "belp_stettlen_gartenstrasse_3_3f5c9d",
        "name": "Stettlen - Gartenstrasse 3",
        "lat": 46.95984,
        "lon": 7.52103,
        "region_id": "Belp",
        "is_virtual_station": true,
        "capacity": 7
      },
      {
        "station_id": "belp_stettlen_ferenbergstrasse_31_07a233",
        "name": "Stettlen - Ferenbergstrasse 31",
        "lat": 46.96087,
        "lon": 7.5196,
        "region_id": "Belp",
        "is_virtual_station": true,
        "capacity": 7
      },
      {
        "station_id": "belp_stettlen_ferenbergstrasse_425bf3",
        "name": "Stettlen - Ferenbergstrasse ",
        "lat": 46.95878,
        "lon": 7.52349,
        "region_id": "Belp",
        "is_virtual_station": true,
        "capacity": 7
      },
      {
        "station_id": "belp_stettlen_sonneggweg_d28545",
        "name": "Stettlen - Sonneggweg",
        "lat": 46.96009,
        "lon": 7.53092,
        "region_id": "Belp",
        "is_virtual_station": true,
        "capacity": 7
      },
      {
        "station_id": "belp_stettlen_alpenstrasse_a67cd1",
        "name": "Stettlen - Alpenstrasse",
        "lat": 46.95975,
        "lon": 7.53368,
        "region_id": "Belp",
        "is_virtual_station": true,
        "capacity": 7
      },
      {
        "station_id": "belp_stettlen_zufahrt_bergackerstrasse_81_848b27",
        "name": "Stettlen - Zufahrt Bergackerstrasse 81",
        "lat": 46.95882,
        "lon": 7.53403,
        "region_id": "Belp",
        "is_virtual_station": true,
        "capacity": 7
      },
      {
        "station_id": "belp_stettlen_flurweg_1_d8de19",
        "name": "Stettlen - Flurweg 1",
        "lat": 46.95782,
        "lon": 7.52948,
        "region_id": "Belp",
        "is_virtual_station": true,
        "capacity": 7
      },
      {
        "station_id": "belp_t_getlistrasse_16_1a6d0a",
        "name": "Tägetlistrasse 16",
        "lat": 46.94973,
        "lon": 7.48582,
        "region_id": "Belp",
        "is_virtual_station": true,
        "capacity": 7
      },
      {
        "station_id": "belp_ostermundigen_g_mligentalstrasse_81_c981d9",
        "name": "Ostermundigen - Gümligentalstrasse 81",
        "lat": 46.95344,
        "lon": 7.5111,
        "region_id": "Belp",
        "is_virtual_station": true,
        "capacity": 7
      },
      {
        "station_id": "belp_ostermundigen_zufahrt_wendeschlaufe_r_tiweg_7d22f6",
        "name": "Ostermundigen - Zufahrt Wendeschlaufe Rütiweg ",
        "lat": 46.95677,
        "lon": 7.50557,
        "region_id": "Belp",
        "is_virtual_station": true,
        "capacity": 7
      },
      {
        "station_id": "belp_ahornstrasse_22_12d0e8",
        "name": "Ahornstrasse 22",
        "lat": 46.955,
        "lon": 7.4992,
        "region_id": "Belp",
        "is_virtual_station": true,
        "capacity": 7
      },
      {
        "station_id": "belp_ostermundigen_oberfeldweg_48_5d116a",
        "name": "Ostermundigen -  Oberfeldweg 48",
        "lat": 46.95417,
        "lon": 7.49747,
        "region_id": "Belp",
        "is_virtual_station": true,
        "capacity": 7
      },
      {
        "station_id": "belp_dennigkofen_9e51ec",
        "name": "Dennigkofen",
        "lat": 46.94948,
        "lon": 7.48907,
        "region_id": "Belp",
        "is_virtual_station": true,
        "capacity": 7
      },
      {
        "station_id": "belp_badweg_93d402",
        "name": "Badweg",
        "lat": 46.94649,
        "lon": 7.49141,
        "region_id": "Belp",
        "is_virtual_station": true,
        "capacity": 7
      },
      {
        "station_id": "belp_ostermundigen_l_tschenstrasse_17_131c0c",
        "name": "Ostermundigen - Lötschenstrasse 17",
        "lat": 46.95272,
        "lon": 7.48691,
        "region_id": "Belp",
        "is_virtual_station": true,
        "capacity": 7
      },
      {
        "station_id": "belp_ostermundigen_seepark_dc608a",
        "name": "Ostermundigen - Seepark ",
        "lat": 46.95534,
        "lon": 7.48957,
        "region_id": "Belp",
        "is_virtual_station": true,
        "capacity": 7
      },
      {
        "station_id": "belp_ostermundigen_mitteldorfstrasse_6_d3c645",
        "name": "Ostermundigen - Mitteldorfstrasse 6",
        "lat": 46.95741,
        "lon": 7.49065,
        "region_id": "Belp",
        "is_virtual_station": true,
        "capacity": 7
      },
      {
        "station_id": "belp_ostermundigen_untere_zollgasse_4_13b837",
        "name": "Ostermundigen - Untere Zollgasse 4",
        "lat": 46.95862,
        "lon": 7.48777,
        "region_id": "Belp",
        "is_virtual_station": true,
        "capacity": 7
      },
      {
        "station_id": "belp_ostermundigen_bernstrasse_34b_98b2f7",
        "name": "Ostermundigen - Bernstrasse 34b",
        "lat": 46.95638,
        "lon": 7.48359,
        "region_id": "Belp",
        "is_virtual_station": true,
        "capacity": 7
      },
      {
        "station_id": "belp_ostermundigen_wendekreis_paracelsiusstrasse_4c979c",
        "name": "Ostermundigen - Wendekreis Paracelsiusstrasse",
        "lat": 46.96027,
        "lon": 7.48957,
        "region_id": "Belp",
        "is_virtual_station": true,
        "capacity": 7
      },
      {
        "station_id": "belp_ostermundigen_bernstrasse_79a_efb7d5",
        "name": "Ostermundigen - Bernstrasse 79a",
        "lat": 46.9584,
        "lon": 7.49234,
        "region_id": "Belp",
        "is_virtual_station": true,
        "capacity": 7
      },
      {
        "station_id": "belp_ostermundigen_zufahrt_oberfeldweg_11_192fab",
        "name": "Ostermundigen - Zufahrt Oberfeldweg 11",
        "lat": 46.95602,
        "lon": 7.4957,
        "region_id": "Belp",
        "is_virtual_station": true,
        "capacity": 7
      },
      {
        "station_id": "belp_ostermundigen_schiessplatzweg_1_982d52",
        "name": "Ostermundigen - Schiessplatzweg 1",
        "lat": 46.95775,
        "lon": 7.49614,
        "region_id": "Belp",
        "is_virtual_station": true,
        "capacity": 7
      },
      {
        "station_id": "belp_ostermundigen_wegm_hleg_ssli_15_e38c35",
        "name": "Ostermundigen - Wegmühlegässli 15",
        "lat": 46.95968,
        "lon": 7.49508,
        "region_id": "Belp",
        "is_virtual_station": true,
        "capacity": 7
      },
      {
        "station_id": "belp_ostermundigen_wiesenstrasse_834be5",
        "name": "Ostermundigen - Wiesenstrasse",
        "lat": 46.96233,
        "lon": 7.49615,
        "region_id": "Belp",
        "is_virtual_station": true,
        "capacity": 7
      },
      {
        "station_id": "belp_ostermundigen_dennikoferweg_038378",
        "name": "Ostermundigen - Dennikoferweg ",
        "lat": 46.95324,
        "lon": 7.49075,
        "region_id": "Belp",
        "is_virtual_station": true,
        "capacity": 7
      },
      {
        "station_id": "belp_oberer_flurweg_aaf1ba",
        "name": "Oberer Flurweg",
        "lat": 46.95278,
        "lon": 7.49319,
        "region_id": "Belp",
        "is_virtual_station": true,
        "capacity": 7
      },
      {
        "station_id": "belp_bolligen_zufahrt_hofacker_c63fb9",
        "name": "Bolligen - Zufahrt Hofacker ",
        "lat": 46.96741,
        "lon": 7.52408,
        "region_id": "Belp",
        "is_virtual_station": true,
        "capacity": 7
      },
      {
        "station_id": "belp_stettlen_ferenberg_gasthof_alpenblick_178f4f",
        "name": "Stettlen Ferenberg - Gasthof Alpenblick",
        "lat": 46.96813,
        "lon": 7.53002,
        "region_id": "Belp",
        "is_virtual_station": true,
        "capacity": 7
      },
      {
        "station_id": "belp_bolligen_sternenkreisel_6930e4",
        "name": "Bolligen - Sternenkreisel",
        "lat": 46.97527,
        "lon": 7.49747,
        "region_id": "Belp",
        "is_virtual_station": true,
        "capacity": 7
      },
      {
        "station_id": "belp_bolligen_bahnhof_f4c63f",
        "name": "Bolligen - Bahnhof",
        "lat": 46.9703,
        "lon": 7.49699,
        "region_id": "Belp",
        "is_virtual_station": true,
        "capacity": 7
      },
      {
        "station_id": "belp_stettlen_gartenstrasse_16_523921",
        "name": "Stettlen - Gartenstrasse 16",
        "lat": 46.96041,
        "lon": 7.51925,
        "region_id": "Belp",
        "is_virtual_station": true,
        "capacity": 7
      },
      {
        "station_id": "belp_stettlen_ferenbergstrasse_19_c3ec72",
        "name": "Stettlen - Ferenbergstrasse 19",
        "lat": 46.96021,
        "lon": 7.52154,
        "region_id": "Belp",
        "is_virtual_station": true,
        "capacity": 7
      },
      {
        "station_id": "belp_stellen_zufahrt_lindengarten_3_480987",
        "name": "Stellen - Zufahrt Lindengarten 3",
        "lat": 46.95952,
        "lon": 7.52544,
        "region_id": "Belp",
        "is_virtual_station": true,
        "capacity": 7
      },
      {
        "station_id": "belp_ostermundigen_ostermundigenstr_93_zufahrt_zentweg_b5f75f",
        "name": "Ostermundigen - Ostermundigenstr. 93 Zufahrt Zentweg ",
        "lat": 46.95483,
        "lon": 7.47676,
        "region_id": "Belp",
        "is_virtual_station": true,
        "capacity": 7
      },
      {
        "station_id": "belp_ostermundigen_breiteweg_34_261bb3",
        "name": "Ostermundigen - Breiteweg 34",
        "lat": 46.95648,
        "lon": 7.47984,
        "region_id": "Belp",
        "is_virtual_station": true,
        "capacity": 7
      },
      {
        "station_id": "belp_ostermundigen_zufahrt_untere_zollgasse_71_05fb62",
        "name": "Ostermundigen - Zufahrt Untere Zollgasse 71",
        "lat": 46.96556,
        "lon": 7.48724,
        "region_id": "Belp",
        "is_virtual_station": true,
        "capacity": 7
      },
      {
        "station_id": "belp_ostermundigen_r_tiweg_131_717cea",
        "name": "Ostermundigen - Rütiweg 131",
        "lat": 46.95563,
        "lon": 7.50871,
        "region_id": "Belp",
        "is_virtual_station": true,
        "capacity": 7
      },
      {
        "station_id": "belp_ostermundigen_r_tiweg_137_08e2ae",
        "name": "Ostermundigen - Rütiweg 137",
        "lat": 46.95476,
        "lon": 7.50892,
        "region_id": "Belp",
        "is_virtual_station": true,
        "capacity": 7
      },
      {
        "station_id": "belp_ostermundigen_jurablickweg_008101",
        "name": "Ostermundigen - Jurablickweg ",
        "lat": 46.95484,
        "lon": 7.49701,
        "region_id": "Belp",
        "is_virtual_station": true,
        "capacity": 7
      },
      {
        "station_id": "belp_ostermundigen_wendekreis_oberer_flurweg_124_1e9216",
        "name": "Ostermundigen - Wendekreis Oberer Flurweg 124",
        "lat": 46.95302,
        "lon": 7.49526,
        "region_id": "Belp",
        "is_virtual_station": true,
        "capacity": 7
      },
      {
        "station_id": "belp_ostermundigen_h_sliweg_7b_7440b3",
        "name": "Ostermundigen - Hüsliweg 7b",
        "lat": 46.95189,
        "lon": 7.49193,
        "region_id": "Belp",
        "is_virtual_station": true,
        "capacity": 7
      },
      {
        "station_id": "belp_ostermundigen_bachstrasse_1_5d7708",
        "name": "Ostermundigen - Bachstrasse 1",
        "lat": 46.95113,
        "lon": 7.48702,
        "region_id": "Belp",
        "is_virtual_station": true,
        "capacity": 7
      },
      {
        "station_id": "belp_ostermundigen_oberdorf_c5289a",
        "name": "Ostermundigen - Oberdorf",
        "lat": 46.95395,
        "lon": 7.48539,
        "region_id": "Belp",
        "is_virtual_station": true,
        "capacity": 7
      },
      {
        "station_id": "belp_oberdorfstrasse_1_536e1d",
        "name": "Oberdorfstrasse 1",
        "lat": 46.95387,
        "lon": 7.48302,
        "region_id": "Belp",
        "is_virtual_station": true,
        "capacity": 7
      },
      {
        "station_id": "belp_ostermundigen_zufahrt_bahnhofstrasse_1_019b5f",
        "name": "Ostermundigen - Zufahrt Bahnhofstrasse 1",
        "lat": 46.95582,
        "lon": 7.48345,
        "region_id": "Belp",
        "is_virtual_station": true,
        "capacity": 7
      },
      {
        "station_id": "belp_ostermundigen_obere_zollgasse_21_4550a6",
        "name": "Ostermundigen - Obere Zollgasse 21",
        "lat": 46.95535,
        "lon": 7.48624,
        "region_id": "Belp",
        "is_virtual_station": true,
        "capacity": 7
      },
      {
        "station_id": "belp_ostermundigen_tertianum_mitteldorfstrasse_16_815101",
        "name": "Ostermundigen - Tertianum Mitteldorfstrasse 16",
        "lat": 46.95695,
        "lon": 7.48924,
        "region_id": "Belp",
        "is_virtual_station": true,
        "capacity": 7
      },
      {
        "station_id": "belp_ostermundigen_zossstrasse_2_cd4216",
        "name": "Ostermundigen - Zossstrasse 2",
        "lat": 46.95661,
        "lon": 7.48794,
        "region_id": "Belp",
        "is_virtual_station": true,
        "capacity": 7
      },
      {
        "station_id": "belp_ostermundigen_bernstrasse_65_512eaf",
        "name": "Ostermundigen - Bernstrasse 65",
        "lat": 46.95828,
        "lon": 7.48868,
        "region_id": "Belp",
        "is_virtual_station": true,
        "capacity": 7
      },
      {
        "station_id": "belp_ostermundigen_zweigung_forell_milchstrasse_4add11",
        "name": "Ostermundigen - Zweigung Forell - Milchstrasse",
        "lat": 46.96099,
        "lon": 7.48341,
        "region_id": "Belp",
        "is_virtual_station": true,
        "capacity": 7
      },
      {
        "station_id": "belp_ostermundigen_kilchgrundstrasse_353665",
        "name": "Ostermundigen - Kilchgrundstrasse",
        "lat": 46.96015,
        "lon": 7.48219,
        "region_id": "Belp",
        "is_virtual_station": true,
        "capacity": 7
      },
      {
        "station_id": "belp_ostermundigen_bernstrasse_37_0af8cd",
        "name": "Ostermundigen - Bernstrasse 37",
        "lat": 46.9567,
        "lon": 7.48388,
        "region_id": "Belp",
        "is_virtual_station": true,
        "capacity": 7
      },
      {
        "station_id": "belp_ostermundigen_bernstrasse_142_359e9a",
        "name": "Ostermundigen - Bernstrasse 142",
        "lat": 46.95934,
        "lon": 7.50047,
        "region_id": "Belp",
        "is_virtual_station": true,
        "capacity": 7
      },
      {
        "station_id": "belp_zweigung_ahornstrasse_lindenweg_4233e4",
        "name": "Zweigung Ahornstrasse Lindenweg",
        "lat": 46.95663,
        "lon": 7.49769,
        "region_id": "Belp",
        "is_virtual_station": true,
        "capacity": 7
      },
      {
        "station_id": "belp_migros_ostermundigen_7357e1",
        "name": "Migros Ostermundigen",
        "lat": 46.95717,
        "lon": 7.49514,
        "region_id": "Belp",
        "is_virtual_station": true,
        "capacity": 7
      },
      {
        "station_id": "belp_bernstrasse_101_1c046b",
        "name": "Bernstrasse 101",
        "lat": 46.95768,
        "lon": 7.49415,
        "region_id": "Belp",
        "is_virtual_station": true,
        "capacity": 7
      },
      {
        "station_id": "belp_ostermundigen_ringstrasse_linie_10_fc3cb2",
        "name": "Ostermundigen - Ringstrasse  Linie 10",
        "lat": 46.9553,
        "lon": 7.48047,
        "region_id": "Belp",
        "is_virtual_station": true,
        "capacity": 7
      },
      {
        "station_id": "belp_bern_robinsonweg_418364",
        "name": "Bern - Robinsonweg",
        "lat": 46.94758,
        "lon": 7.48369,
        "region_id": "Belp",
        "is_virtual_station": true,
        "capacity": 7
      },
      {
        "station_id": "belp_bolligen_parkplatz_bantigen_f75bec",
        "name": "Bolligen - Parkplatz Bantigen",
        "lat": 46.9718,
        "lon": 7.51708,
        "region_id": "Belp",
        "is_virtual_station": true,
        "capacity": 7
      },
      {
        "station_id": "belp_bolligen_parkplatz_cholgruebe_faea9c",
        "name": "Bolligen - Parkplatz Cholgruebe",
        "lat": 46.97394,
        "lon": 7.5415,
        "region_id": "Belp",
        "is_virtual_station": true,
        "capacity": 7
      },
      {
        "station_id": "belp_bolligen_flugbrunnen_b5b981",
        "name": "Bolligen - Flugbrunnen",
        "lat": 46.97424,
        "lon": 7.50914,
        "region_id": "Belp",
        "is_virtual_station": true,
        "capacity": 7
      },
      {
        "station_id": "belp_ostermundigen_zweigung_ahornstrasse_lindenweg_4234b0",
        "name": "Ostermundigen - Zweigung Ahornstrasse Lindenweg",
        "lat": 46.95674,
        "lon": 7.49781,
        "region_id": "Belp",
        "is_virtual_station": true,
        "capacity": 7
      },
      {
        "station_id": "belp_ostermundigen_alpenstrasse_10_cc6bba",
        "name": "Ostermundigen - Alpenstrasse 10",
        "lat": 46.95586,
        "lon": 7.48534,
        "region_id": "Belp",
        "is_virtual_station": true,
        "capacity": 7
      },
      {
        "station_id": "belp_ostermundigen_blankweg_248f1f",
        "name": "Ostermundigen - Blankweg",
        "lat": 46.95595,
        "lon": 7.49244,
        "region_id": "Belp",
        "is_virtual_station": true,
        "capacity": 7
      },
      {
        "station_id": "belp_ostermundigen_eschenweg_10_alt_253557",
        "name": "Ostermundigen - Eschenweg 10 -ALT",
        "lat": 46.95969,
        "lon": 7.49335,
        "region_id": "Belp",
        "is_virtual_station": true,
        "capacity": 7
      },
      {
        "station_id": "belp_bolligen_dorfstr_91_f061f5",
        "name": "Bolligen - Dorfstr. 91",
        "lat": 46.9845414,
        "lon": 7.5035211,
        "region_id": "Belp",
        "is_virtual_station": true,
        "capacity": 7
      },
      {
        "station_id": "belp_bolligen_bantigetal_310_911ce7",
        "name": "Bolligen - Bantigetal 310",
        "lat": 46.985339,
        "lon": 7.5195146,
        "region_id": "Belp",
        "is_virtual_station": true,
        "capacity": 7
      },
      {
        "station_id": "belp_bolligen_hubelgasse_27_11b7b8",
        "name": "Bolligen - Hubelgasse 27",
        "lat": 46.9815887,
        "lon": 7.5000769,
        "region_id": "Belp",
        "is_virtual_station": true,
        "capacity": 7
      },
      {
        "station_id": "belp_bolligen_im_g_ssliacker_1_886d30",
        "name": "Bolligen - Im Gässliacker 1",
        "lat": 46.9848456,
        "lon": 7.4987144,
        "region_id": "Belp",
        "is_virtual_station": true,
        "capacity": 7
      },
      {
        "station_id": "belp_bolligen_tieracker_36_verzweigung_70ae6a",
        "name": "Bolligen - Tieracker 36 Verzweigung",
        "lat": 46.9776731,
        "lon": 7.4974656,
        "region_id": "Belp",
        "is_virtual_station": true,
        "capacity": 7
      },
      {
        "station_id": "belp_bolligen_stampachgasse_95_zufahrt_6ba10d",
        "name": "Bolligen - Stampachgasse 95 Zufahrt",
        "lat": 46.9829707,
        "lon": 7.4950916,
        "region_id": "Belp",
        "is_virtual_station": true,
        "capacity": 7
      },
      {
        "station_id": "belp_bolligen_stampachgasse_1_3a7e15",
        "name": "Bolligen - Stampachgasse 1",
        "lat": 46.9839072,
        "lon": 7.497275,
        "region_id": "Belp",
        "is_virtual_station": true,
        "capacity": 7
      },
      {
        "station_id": "belp_bolligen_verzweigung_366_378e42",
        "name": "Bolligen - Verzweigung 366",
        "lat": 46.9752946,
        "lon": 7.5158168,
        "region_id": "Belp",
        "is_virtual_station": true,
        "capacity": 7
      },
      {
        "station_id": "belp_bolligen_h_chstr_ss_12_zufahrt_parkplatz_d69c1c",
        "name": "Bolligen - Höchsträss 12 Zufahrt Parkplatz",
        "lat": 46.9734273,
        "lon": 7.5027606,
        "region_id": "Belp",
        "is_virtual_station": true,
        "capacity": 7
      },
      {
        "station_id": "belp_bolligen_bodenacker_42_wendeplatte_e824fc",
        "name": "Bolligen - Bodenacker 42 Wendeplatte",
        "lat": 46.9794903,
        "lon": 7.5006817,
        "region_id": "Belp",
        "is_virtual_station": true,
        "capacity": 7
      },
      {
        "station_id": "belp_bolligen_habstettenstr_14_verzweigung_reckholtern_fc18be",
        "name": "Bolligen - Habstettenstr. 14 Verzweigung Reckholtern",
        "lat": 46.9791433,
        "lon": 7.4989529,
        "region_id": "Belp",
        "is_virtual_station": true,
        "capacity": 7
      },
      {
        "station_id": "belp_bolligen_hubelgasse_11_zufahrt_3028fb",
        "name": "Bolligen - Hubelgasse 11 Zufahrt",
        "lat": 46.9802691,
        "lon": 7.501876,
        "region_id": "Belp",
        "is_virtual_station": true,
        "capacity": 7
      },
      {
        "station_id": "belp_bolligen_eggweg_54_verzweigung_d88a89",
        "name": "Bolligen - Eggweg 54 Verzweigung",
        "lat": 46.9710371,
        "lon": 7.4994159,
        "region_id": "Belp",
        "is_virtual_station": true,
        "capacity": 7
      },
      {
        "station_id": "belp_bolligen_eggweg_52_wendeplatte_9f829b",
        "name": "Bolligen - Eggweg 52 Wendeplatte",
        "lat": 46.9721926,
        "lon": 7.4980202,
        "region_id": "Belp",
        "is_virtual_station": true,
        "capacity": 7
      },
      {
        "station_id": "belp_bolligen_eggweg_13_zugang_ddd5e1",
        "name": "Bolligen - Eggweg 13 Zugang",
        "lat": 46.9715698,
        "lon": 7.498909,
        "region_id": "Belp",
        "is_virtual_station": true,
        "capacity": 7
      },
      {
        "station_id": "belp_bolligen_wydmatt_zufahrt_554_237f6d",
        "name": "Bolligen - Wydmatt Zufahrt 554",
        "lat": 46.9680208,
        "lon": 7.5365882,
        "region_id": "Belp",
        "is_virtual_station": true,
        "capacity": 7
      },
      {
        "station_id": "belp_stettlen_ferenbergstr_85_77367b",
        "name": "Stettlen - Ferenbergstr. 85",
        "lat": 46.9678007,
        "lon": 7.5178955,
        "region_id": "Belp",
        "is_virtual_station": true,
        "capacity": 7
      },
      {
        "station_id": "belp_bolligen_kistlerstr_43_zufahrt_parkplatz_20f2c2",
        "name": "Bolligen - Kistlerstr. 43 Zufahrt Parkplatz",
        "lat": 46.9729363,
        "lon": 7.4947989,
        "region_id": "Belp",
        "is_virtual_station": true,
        "capacity": 7
      },
      {
        "station_id": "belp_bolligen_eisengasse_34_zufahrt_1596d0",
        "name": "Bolligen - Eisengasse 34 Zufahrt",
        "lat": 46.9718487,
        "lon": 7.4954935,
        "region_id": "Belp",
        "is_virtual_station": true,
        "capacity": 7
      },
      {
        "station_id": "belp_bolligen_kistlerstr_50_zufahrt_parking_3e8be9",
        "name": "Bolligen - Kistlerstr. 50 Zufahrt Parking",
        "lat": 46.972704,
        "lon": 7.4933551,
        "region_id": "Belp",
        "is_virtual_station": true,
        "capacity": 7
      },
      {
        "station_id": "belp_stettlen_waren_metzgerei_probst_a174cb",
        "name": "Stettlen - Waren Metzgerei Probst",
        "lat": 46.95818,
        "lon": 7.52372,
        "region_id": "Belp",
        "is_virtual_station": true,
        "capacity": 7
      },
      {
        "station_id": "belp_bolligen_forsthaus_87b77a",
        "name": "Bolligen - Forsthaus",
        "lat": 46.99388,
        "lon": 7.4852,
        "region_id": "Belp",
        "is_virtual_station": true,
        "capacity": 7
      },
      {
        "station_id": "belp_bolligen_eggweg_20_c265f0",
        "name": "Bolligen - Eggweg 20",
        "lat": 46.97124,
        "lon": 7.49891,
        "region_id": "Belp",
        "is_virtual_station": true,
        "capacity": 7
      },
      {
        "station_id": "belp_ostermundigen_oberdorfstrasse_2_0d2ce2",
        "name": "Ostermundigen - Oberdorfstrasse 2",
        "lat": 46.95381,
        "lon": 7.48295,
        "region_id": "Belp",
        "is_virtual_station": true,
        "capacity": 7
      },
      {
        "station_id": "belp_ostermundigen_dennigkofen_rbs_ed287c",
        "name": "Ostermundigen - Dennigkofen (RBS)",
        "lat": 46.94934,
        "lon": 7.48929,
        "region_id": "Belp",
        "is_virtual_station": true,
        "capacity": 7
      },
      {
        "station_id": "belp_ostermundigen_zufahrt_steinbruchweg_7_a264bb",
        "name": "Ostermundigen - Zufahrt Steinbruchweg 7",
        "lat": 46.95165,
        "lon": 7.49412,
        "region_id": "Belp",
        "is_virtual_station": true,
        "capacity": 7
      },
      {
        "station_id": "belp_ostermundigen_eschenweg_10_f1d125",
        "name": "Ostermundigen - Eschenweg 10",
        "lat": 46.95677,
        "lon": 7.50024,
        "region_id": "Belp",
        "is_virtual_station": true,
        "capacity": 7
      },
      {
        "station_id": "belp_bolligen_bantigetal_verzweigung_312_92c337",
        "name": "Bolligen - Bantigetal Verzweigung 312",
        "lat": 46.9835615,
        "lon": 7.5183776,
        "region_id": "Belp",
        "is_virtual_station": true,
        "capacity": 7
      },
      {
        "station_id": "belp_bolligen_geristein_harnischhuet_298_85f7a5",
        "name": "Bolligen - Geristein Harnischhuet 298",
        "lat": 46.988207,
        "lon": 7.5212598,
        "region_id": "Belp",
        "is_virtual_station": true,
        "capacity": 7
      },
      {
        "station_id": "belp_bolligen_bodenacker_41_parking_e058cd",
        "name": "Bolligen - Bodenacker 41 Parking",
        "lat": 46.9810785,
        "lon": 7.499271,
        "region_id": "Belp",
        "is_virtual_station": true,
        "capacity": 7
      },
      {
        "station_id": "belp_bolligen_dorfstr_44_zufahrt_50f5d6",
        "name": "Bolligen - Dorfstr. 44 Zufahrt",
        "lat": 46.9842072,
        "lon": 7.5005917,
        "region_id": "Belp",
        "is_virtual_station": true,
        "capacity": 7
      },
      {
        "station_id": "belp_bolligen_spittelhausweg_14_4d5155",
        "name": "Bolligen - Spittelhausweg 14",
        "lat": 46.9856943,
        "lon": 7.4985461,
        "region_id": "Belp",
        "is_virtual_station": true,
        "capacity": 7
      },
      {
        "station_id": "belp_bolligen_stockacher_123_2d8a98",
        "name": "Bolligen - Stockacher 123",
        "lat": 46.986517,
        "lon": 7.4958161,
        "region_id": "Belp",
        "is_virtual_station": true,
        "capacity": 7
      },
      {
        "station_id": "belp_bolligen_krauchthalstr_54_zufahrt_b054c0",
        "name": "Bolligen - Krauchthalstr. 54 Zufahrt",
        "lat": 46.9811507,
        "lon": 7.5040819,
        "region_id": "Belp",
        "is_virtual_station": true,
        "capacity": 7
      },
      {
        "station_id": "belp_bolligen_flugbrunnen_zufahrt_432_ef1952",
        "name": "Bolligen - Flugbrunnen Zufahrt 432",
        "lat": 46.9740549,
        "lon": 7.5058683,
        "region_id": "Belp",
        "is_virtual_station": true,
        "capacity": 7
      },
      {
        "station_id": "belp_bolligen_einschlagstr_7_zufahrt_parking_8e84fe",
        "name": "Bolligen - Einschlagstr. 7 Zufahrt Parking",
        "lat": 46.9737069,
        "lon": 7.4933901,
        "region_id": "Belp",
        "is_virtual_station": true,
        "capacity": 7
      },
      {
        "station_id": "belp_bolligen_burgerstr_23b_c6df33",
        "name": "Bolligen - Burgerstr. 23b",
        "lat": 46.9740791,
        "lon": 7.4895313,
        "region_id": "Belp",
        "is_virtual_station": true,
        "capacity": 7
      },
      {
        "station_id": "belp_bolligen_h_hnerb_hlstr_43_zufahrt_29a4cc",
        "name": "Bolligen - Hühnerbühlstr. 43 Zufahrt",
        "lat": 46.9722944,
        "lon": 7.4995945,
        "region_id": "Belp",
        "is_virtual_station": true,
        "capacity": 7
      },
      {
        "station_id": "belp_bolligen_habstettenstr_verzweigung_fluracker_ede523",
        "name": "Bolligen - Habstettenstr. Verzweigung Fluracker",
        "lat": 46.9780016,
        "lon": 7.4988517,
        "region_id": "Belp",
        "is_virtual_station": true,
        "capacity": 7
      },
      {
        "station_id": "belp_bolligen_bodenacker_12_zufahrt_b3b822",
        "name": "Bolligen - Bodenacker 12 Zufahrt",
        "lat": 46.9796754,
        "lon": 7.4994268,
        "region_id": "Belp",
        "is_virtual_station": true,
        "capacity": 7
      },
      {
        "station_id": "belp_bolligen_h_hnerb_hlstr_50_968f24",
        "name": "Bolligen - Hühnerbühlstr. 50",
        "lat": 46.9695991,
        "lon": 7.500251,
        "region_id": "Belp",
        "is_virtual_station": true,
        "capacity": 7
      },
      {
        "station_id": "belp_bolligen_h_hnerb_hlstr_38_verzweigung_a9e46f",
        "name": "Bolligen - Hühnerbühlstr. 38 Verzweigung",
        "lat": 46.9702382,
        "lon": 7.4994291,
        "region_id": "Belp",
        "is_virtual_station": true,
        "capacity": 7
      },
      {
        "station_id": "belp_bolligen_eggweg_80_alt_d5d199",
        "name": "Bolligen - Eggweg 80 - ALT",
        "lat": 46.9712709,
        "lon": 7.4979641,
        "region_id": "Belp",
        "is_virtual_station": true,
        "capacity": 7
      },
      {
        "station_id": "belp_bolligen_h_hnerb_hlstr_202_7b1a79",
        "name": "Bolligen - Hühnerbühlstr. 202",
        "lat": 46.9675933,
        "lon": 7.5069171,
        "region_id": "Belp",
        "is_virtual_station": true,
        "capacity": 7
      },
      {
        "station_id": "belp_ostermundigen_ahornstrasse_22_2299f4",
        "name": "Ostermundigen - Ahornstrasse 22",
        "lat": 46.95508,
        "lon": 7.49915,
        "region_id": "Belp",
        "is_virtual_station": true,
        "capacity": 7
      },
      {
        "station_id": "belp_ostermundigen_t_getlistrasse_35_2338e0",
        "name": "Ostermundigen - Tägetlistrasse 35",
        "lat": 46.94965,
        "lon": 7.48591,
        "region_id": "Belp",
        "is_virtual_station": true,
        "capacity": 7
      },
      {
        "station_id": "belp_ostermundigen_kilchgrund_36c4fd",
        "name": "Ostermundigen - Kilchgrund",
        "lat": 46.95853,
        "lon": 7.48494,
        "region_id": "Belp",
        "is_virtual_station": true,
        "capacity": 7
      },
      {
        "station_id": "belp_ostermundigen_ringstrasse_2_b_a67864",
        "name": "Ostermundigen - Ringstrasse 2 b",
        "lat": 46.95391,
        "lon": 7.48038,
        "region_id": "Belp",
        "is_virtual_station": true,
        "capacity": 7
      },
      {
        "station_id": "belp_ostermundigen_oberer_flurweg_74_ccf6d4",
        "name": "Ostermundigen - Oberer Flurweg 74",
        "lat": 46.95278,
        "lon": 7.49325,
        "region_id": "Belp",
        "is_virtual_station": true,
        "capacity": 7
      },
      {
        "station_id": "belp_stettlen_neunenenstrasse_2a_0cf888",
        "name": "Stettlen - Neunenenstrasse 2a",
        "lat": 46.96103,
        "lon": 7.52003,
        "region_id": "Belp",
        "is_virtual_station": true,
        "capacity": 7
      },
      {
        "station_id": "belp_bolligen_stockern_rbs_c768b9",
        "name": "Bolligen - Stockern (RBS)",
        "lat": 46.9863632,
        "lon": 7.5079153,
        "region_id": "Belp",
        "is_virtual_station": true,
        "capacity": 7
      },
      {
        "station_id": "belp_bolligen_herrenw_ldlirain_13_verzweigung_a15f13",
        "name": "Bolligen - Herrenwäldlirain 13 Verzweigung",
        "lat": 46.9811559,
        "lon": 7.5022292,
        "region_id": "Belp",
        "is_virtual_station": true,
        "capacity": 7
      },
      {
        "station_id": "belp_bolligen_im_g_ssliacher_37_wendeplatte_2b02bf",
        "name": "Bolligen - Im Gässliacher 37 Wendeplatte",
        "lat": 46.9874842,
        "lon": 7.4991924,
        "region_id": "Belp",
        "is_virtual_station": true,
        "capacity": 7
      },
      {
        "station_id": "belp_bolligen_eichenweg_46a15b",
        "name": "Bolligen - Eichenweg",
        "lat": 46.978534,
        "lon": 7.4918686,
        "region_id": "Belp",
        "is_virtual_station": true,
        "capacity": 7
      },
      {
        "station_id": "belp_bolligen_spittelhausweg_7_zufahrt_041b15",
        "name": "Bolligen - Spittelhausweg 7 Zufahrt",
        "lat": 46.9852495,
        "lon": 7.4974042,
        "region_id": "Belp",
        "is_virtual_station": true,
        "capacity": 7
      },
      {
        "station_id": "belp_bolligen_schupfstr_4_zufahrt_a526ef",
        "name": "Bolligen - Schupfstr. 4 Zufahrt",
        "lat": 46.9843443,
        "lon": 7.4950584,
        "region_id": "Belp",
        "is_virtual_station": true,
        "capacity": 7
      },
      {
        "station_id": "belp_bolligen_bantigen_zugangstreppe_731_0d5ab4",
        "name": "Bolligen - Bantigen -Zugangstreppe 731",
        "lat": 46.9779482,
        "lon": 7.516854,
        "region_id": "Belp",
        "is_virtual_station": true,
        "capacity": 7
      },
      {
        "station_id": "belp_bolligen_bantigen_kreuzung_372_d65c6d",
        "name": "Bolligen - Bantigen Kreuzung 372",
        "lat": 46.9745911,
        "lon": 7.5173714,
        "region_id": "Belp",
        "is_virtual_station": true,
        "capacity": 7
      },
      {
        "station_id": "belp_bolligen_haldenackerweg_14_alt_3cb6eb",
        "name": "Bolligen - Haldenackerweg 14 - ALT",
        "lat": 46.9759524,
        "lon": 7.4909959,
        "region_id": "Belp",
        "is_virtual_station": true,
        "capacity": 7
      },
      {
        "station_id": "belp_bolligen_lutertalstr_4_6_0d4ab0",
        "name": "Bolligen - Lutertalstr. 4-6",
        "lat": 46.9793538,
        "lon": 7.4911562,
        "region_id": "Belp",
        "is_virtual_station": true,
        "capacity": 7
      },
      {
        "station_id": "belp_bolligen_gerenstrasse_1_ab5c49",
        "name": "Bolligen - Gerenstrasse 1",
        "lat": 46.9729495,
        "lon": 7.4916185,
        "region_id": "Belp",
        "is_virtual_station": true,
        "capacity": 7
      },
      {
        "station_id": "belp_bolligen_sonnhalde_30_59ae25",
        "name": "Bolligen - Sonnhalde 30",
        "lat": 46.9734851,
        "lon": 7.488832,
        "region_id": "Belp",
        "is_virtual_station": true,
        "capacity": 7
      },
      {
        "station_id": "belp_bolligen_reckholtern_3130b9",
        "name": "Bolligen - Reckholtern",
        "lat": 46.9807167,
        "lon": 7.4981584,
        "region_id": "Belp",
        "is_virtual_station": true,
        "capacity": 7
      },
      {
        "station_id": "belp_bolligen_h_hnerb_hlrain_42_5ef242",
        "name": "Bolligen - Hühnerbühlrain 42",
        "lat": 46.9704629,
        "lon": 7.501023,
        "region_id": "Belp",
        "is_virtual_station": true,
        "capacity": 7
      },
      {
        "station_id": "belp_bolligen_h_hnerb_hlstr_165a_567baf",
        "name": "Bolligen - Hühnerbühlstr. 165a",
        "lat": 46.9688912,
        "lon": 7.5026269,
        "region_id": "Belp",
        "is_virtual_station": true,
        "capacity": 7
      },
      {
        "station_id": "belp_bolligen_verzweigung_stettlen_feld_ada97a",
        "name": "Bolligen - Verzweigung Stettlen Feld",
        "lat": 46.9680485,
        "lon": 7.5384346,
        "region_id": "Belp",
        "is_virtual_station": true,
        "capacity": 7
      },
      {
        "station_id": "belp_bolligen_badhausstrasse_48_052892",
        "name": "Bolligen - Badhausstrasse 48",
        "lat": 46.9727503,
        "lon": 7.4898491,
        "region_id": "Belp",
        "is_virtual_station": true,
        "capacity": 7
      },
      {
        "station_id": "belp_bolligen_haldenackerweg_20_6f4e19",
        "name": "Bolligen - Haldenackerweg 20",
        "lat": 46.97598,
        "lon": 7.491,
        "region_id": "Belp",
        "is_virtual_station": true,
        "capacity": 7
      },
      {
        "station_id": "belp_bolligen_waren_b_ckerei_krenger_ed6d94",
        "name": "Bolligen -  Waren Bäckerei Krenger",
        "lat": 46.97453,
        "lon": 7.49614,
        "region_id": "Belp",
        "is_virtual_station": true,
        "capacity": 7
      },
      {
        "station_id": "belp_ostermundigen_freibad_rbs_43b1df",
        "name": "Ostermundigen - Freibad (RBS)",
        "lat": 46.94636,
        "lon": 7.49149,
        "region_id": "Belp",
        "is_virtual_station": true,
        "capacity": 7
      },