{
  "last_updated": 1759760619,
  "ttl": 3600,
  "version": "2.3",
  "data": {
    "stations": [
      {
        "station_id": "andermatt_andermatt_bahnhofstrasse_93ff82",
        "name": "Andermatt -  Bahnhofstrasse",
        "address": "Andermatt -  Bahnhofstrasse",
        "lat": 46.63695,
        "lon": 8.59438,
        "region_id": "Andermatt",
        "is_virtual_station": true,
        "capacity": 7
      },
      {
        "station_id": "andermatt_andermatt_gemsstockbahn_parkplatz_ee017a",
        "name": "Andermatt  - Gemsstockbahn Parkplatz",
        "address": "Andermatt  - Gemsstockbahn Parkplatz",
        "lat": 46.63211,
        "lon": 8.59216,
        "region_id": "Andermatt",
        "is_virtual_station": true,
        "capacity": 7
      },
      {
        "station_id": "andermatt_andermatt_altkirch_64886e",
        "name": "Andermatt - Altkirch",
        "address": "Andermatt - Altkirch",
        "lat": 46.64003,
        "lon": 8.59364,
        "region_id": "Andermatt",
        "is_virtual_station": true,
        "capacity": 7
      },
      {
        "station_id": "andermatt_andermatt_bodenstrasse_20_fafa23",
        "name": "Andermatt - Bodenstrasse 20",
        "address": "Andermatt - Bodenstrasse 20",
        "lat": 46.63481,
        "lon": 8.59053,
        "region_id": "Andermatt",
        "is_virtual_station": true,
        "capacity": 7
      },
      {
        "station_id": "andermatt_andermatt_golfplatz_cotton_club_84216e",
        "name": "Andermatt - Golfplatz/Cotton Club",
        "address": "Andermatt - Golfplatz/Cotton Club",
        "lat": 46.63433,
        "lon": 8.58384,
        "region_id": "Andermatt",
        "is_virtual_station": true,
        "capacity": 7
      },
      {
        "station_id": "andermatt_andermatt_hotel_drei_k_nige_ac0e55",
        "name": "Andermatt - Hotel Drei Könige",
        "address": "Andermatt - Hotel Drei Könige",
        "lat": 46.63395,
        "lon": 8.59762,
        "region_id": "Andermatt",
        "is_virtual_station": true,
        "capacity": 7
      },
      {
        "station_id": "andermatt_andermatt_hotel_the_chedi_2f6f49",
        "name": "Andermatt - Hotel The Chedi",
        "address": "Andermatt - Hotel The Chedi",
        "lat": 46.63626,
        "lon": 8.59478,
        "region_id": "Andermatt",
        "is_virtual_station": true,
        "capacity": 7
      },
      {
        "station_id": "andermatt_andermatt_konzerthalle_628032",
        "name": "Andermatt - Konzerthalle",
        "address": "Andermatt - Konzerthalle",
        "lat": 46.64078,
        "lon": 8.59109,
        "region_id": "Andermatt",
        "is_virtual_station": true,
        "capacity": 7
      },
      {
        "station_id": "andermatt_n_tschen_bahnhof_mgb_60d11a",
        "name": "Nätschen - Bahnhof MGB",
        "address": "Nätschen - Bahnhof MGB",
        "lat": 46.64204,
        "lon": 8.6109,
        "region_id": "Andermatt",
        "is_virtual_station": true,
        "capacity": 7
      },
      {
        "station_id": "andermatt_andermatt_oberalpstrasse_zufahrt_zu_33_bis_46_af65f5",
        "name": "Andermatt - Oberalpstrasse Zufahrt zu 33 bis 46",
        "address": "Andermatt - Oberalpstrasse Zufahrt zu 33 bis 46",
        "lat": 46.63524,
        "lon": 8.5994,
        "region_id": "Andermatt",
        "is_virtual_station": true,
        "capacity": 7
      },
      {
        "station_id": "andermatt_andermatt_ref_kirche_a05b37",
        "name": "Andermatt - ref. Kirche",
        "address": "Andermatt - ref. Kirche",
        "lat": 46.63512,
        "lon": 8.59265,
        "region_id": "Andermatt",
        "is_virtual_station": true,
        "capacity": 7
      },
      {
        "station_id": "andermatt_andermatt_reussbr_cke_marcht_22191b",
        "name": "Andermatt - Reussbrücke/Marcht",
        "address": "Andermatt - Reussbrücke/Marcht",
        "lat": 46.62667,
        "lon": 8.58065,
        "region_id": "Andermatt",
        "is_virtual_station": true,
        "capacity": 7
      },
      {
        "station_id": "andermatt_andermatt_sch_llenen_feuerstelle_geissenplatz_f4defd",
        "name": "Andermatt - Schöllenen/Feuerstelle Geissenplatz",
        "address": "Andermatt - Schöllenen/Feuerstelle Geissenplatz",
        "lat": 46.64916,
        "lon": 8.58819,
        "region_id": "Andermatt",
        "is_virtual_station": true,
        "capacity": 7
      },
      {
        "station_id": "andermatt_andermatt_zufahrt_golfplatz_4597ac",
        "name": "Andermatt - Zufahrt Golfplatz",
        "address": "Andermatt - Zufahrt Golfplatz",
        "lat": 46.63208,
        "lon": 8.58751,
        "region_id": "Andermatt",
        "is_virtual_station": true,
        "capacity": 7
      },
      {
        "station_id": "andermatt_g_schenen_bahnhof_1ee1aa",
        "name": "Göschenen - Bahnhof",
        "address": "Göschenen - Bahnhof",
        "lat": 46.66583,
        "lon": 8.58837,
        "region_id": "Andermatt",
        "is_virtual_station": true,
        "capacity": 7
      },
      {
        "station_id": "andermatt_gotthardpass_brigg_abzweigung_alte_gotthardstrasse_abd906",
        "name": "Gotthardpass - Brigg/Abzweigung alte Gotthardstrasse",
        "address": "Gotthardpass - Brigg/Abzweigung alte Gotthardstrasse",
        "lat": 46.58203,
        "lon": 8.55911,
        "region_id": "Andermatt",
        "is_virtual_station": true,
        "capacity": 7
      },
      {
        "station_id": "andermatt_gotthardm_tteli_gamssteg_pp_3d3ee4",
        "name": "Gotthardmätteli - Gamssteg PP",
        "address": "Gotthardmätteli - Gamssteg PP",
        "lat": 46.60997,
        "lon": 8.57195,
        "region_id": "Andermatt",
        "is_virtual_station": true,
        "capacity": 7
      },
      {
        "station_id": "andermatt_gotthardpass_hinter_plangge_01b4bf",
        "name": "Gotthardpass - Hinter Plangge",
        "address": "Gotthardpass - Hinter Plangge",
        "lat": 46.58335,
        "lon": 8.55814,
        "region_id": "Andermatt",
        "is_virtual_station": true,
        "capacity": 7
      },
      {
        "station_id": "andermatt_gotthardpass_in_den_b_chen_86dee8",
        "name": "Gotthardpass - In den Bächen",
        "address": "Gotthardpass - In den Bächen",
        "lat": 46.59017,
        "lon": 8.55747,
        "region_id": "Andermatt",
        "is_virtual_station": true,
        "capacity": 7
      },
      {
        "station_id": "andermatt_gotthardm_tteli_rest_m_tteli_384f47",
        "name": "Gotthardmätteli - Rest. Mätteli",
        "address": "Gotthardmätteli - Rest. Mätteli",
        "lat": 46.59116,
        "lon": 8.56071,
        "region_id": "Andermatt",
        "is_virtual_station": true,
        "capacity": 7
      },
      {
        "station_id": "andermatt_gotthardpass_sustenegg_fd3567",
        "name": "Gotthardpass - Sustenegg",
        "address": "Gotthardpass - Sustenegg",
        "lat": 46.576765,
        "lon": 8.55865,
        "region_id": "Andermatt",
        "is_virtual_station": true,
        "capacity": 7
      },
      {
        "station_id": "andermatt_gotthardpass_vorder_plangge_f700f3",
        "name": "Gotthardpass - Vorder Plangge",
        "address": "Gotthardpass - Vorder Plangge",
        "lat": 46.585675,
        "lon": 8.557671,
        "region_id": "Andermatt",
        "is_virtual_station": true,
        "capacity": 7
      },
      {
        "station_id": "andermatt_hospental_bahnhof_3f32e8",
        "name": "Hospental - Bahnhof",
        "address": "Hospental - Bahnhof",
        "lat": 46.62098,
        "lon": 8.57081,
        "region_id": "Andermatt",
        "is_virtual_station": true,
        "capacity": 7
      },
      {
        "station_id": "andermatt_hospental_kreisel_gotthardpass_20e187",
        "name": "Hospental - Kreisel Gotthardpass",
        "address": "Hospental - Kreisel Gotthardpass",
        "lat": 46.61768,
        "lon": 8.56671,
        "region_id": "Andermatt",
        "is_virtual_station": true,
        "capacity": 7
      },
      {
        "station_id": "andermatt_hospental_parkplatz_skilift_winterhorn_ca2e62",
        "name": "Hospental - Parkplatz Skilift Winterhorn",
        "address": "Hospental - Parkplatz Skilift Winterhorn",
        "lat": 46.61698,
        "lon": 8.56311,
        "region_id": "Andermatt",
        "is_virtual_station": true,
        "capacity": 7
      },
      {
        "station_id": "andermatt_oberalppass_gand_135881",
        "name": "Oberalppass - Gand",
        "address": "Oberalppass - Gand",
        "lat": 46.65702,
        "lon": 8.64492,
        "region_id": "Andermatt",
        "is_virtual_station": true,
        "capacity": 7
      },
      {
        "station_id": "andermatt_oberalppass_passh_he_3cff13",
        "name": "Oberalppass - Passhöhe",
        "address": "Oberalppass - Passhöhe",
        "lat": 46.65887,
        "lon": 8.67099,
        "region_id": "Andermatt",
        "is_virtual_station": true,
        "capacity": 7
      },
      {
        "station_id": "andermatt_oberalppass_sch_ni_seuchenkreuz_7dfe1a",
        "name": "Oberalppass - Schöni/Seuchenkreuz",
        "address": "Oberalppass - Schöni/Seuchenkreuz",
        "lat": 46.64497,
        "lon": 8.62473,
        "region_id": "Andermatt",
        "is_virtual_station": true,
        "capacity": 7
      },
      {
        "station_id": "andermatt_oberalppass_staumauer_oberalpsee_a14dc8",
        "name": "Oberalppass - Staumauer Oberalpsee",
        "address": "Oberalppass - Staumauer Oberalpsee",
        "lat": 46.65874,
        "lon": 8.6532,
        "region_id": "Andermatt",
        "is_virtual_station": true,
        "capacity": 7
      },
      {
        "station_id": "andermatt_realp_bahnhof_dampfbahn_furka_bergstrecke_3257ec",
        "name": "Realp - Bahnhof Dampfbahn Furka-Bergstrecke",
        "address": "Realp - Bahnhof Dampfbahn Furka-Bergstrecke",
        "lat": 46.59552,
        "lon": 8.50093,
        "region_id": "Andermatt",
        "is_virtual_station": true,
        "capacity": 7
      },
      {
        "station_id": "andermatt_realp_skilift_974b40",
        "name": "Realp - Skilift",
        "address": "Realp - Skilift",
        "lat": 46.59806,
        "lon": 8.50161,
        "region_id": "Andermatt",
        "is_virtual_station": true,
        "capacity": 7
      },
      {
        "station_id": "andermatt_wassen_bahnhof_sbb_551b5b",
        "name": "Wassen - Bahnhof SBB",
        "address": "Wassen - Bahnhof SBB",
        "lat": 46.70194,
        "lon": 8.59729,
        "region_id": "Andermatt",
        "is_virtual_station": true,
        "capacity": 7
      },
      {
        "station_id": "andermatt_wassen_wattingen_a5f95d",
        "name": "Wassen - Wattingen",
        "address": "Wassen - Wattingen",
        "lat": 46.69509,
        "lon": 8.5961,
        "region_id": "Andermatt",
        "is_virtual_station": true,
        "capacity": 7
      },
      {
        "station_id": "andermatt_zumdorf_restaurant_zum_d_rfli_parkplatz_2c0b9b",
        "name": "Zumdorf - Restaurant Zum Dörfli/Parkplatz",
        "address": "Zumdorf - Restaurant Zum Dörfli/Parkplatz",
        "lat": 46.61096,
        "lon": 8.53706,
        "region_id": "Andermatt",
        "is_virtual_station": true,
        "capacity": 7
      },
      {
        "station_id": "andermatt_gotthardm_tteli_einstieg_wanderweg_winterhorn_cae2d9",
        "name": "Gotthardmätteli - Einstieg Wanderweg Winterhorn",
        "address": "Gotthardmätteli - Einstieg Wanderweg Winterhorn",
        "lat": 46.60918,
        "lon": 8.57021,
        "region_id": "Andermatt",
        "is_virtual_station": true,
        "capacity": 7
      },
      {
        "station_id": "andermatt_wassen_aegerstein_510cc7",
        "name": "Wassen - Aegerstein",
        "address": "Wassen - Aegerstein",
        "lat": 46.68988,
        "lon": 8.59434,
        "region_id": "Andermatt",
        "is_virtual_station": true,
        "capacity": 7
      },
      {
        "station_id": "andermatt_andermatt_bahnhofplatz_gleis_0_sportgesch_ft_9482f0",
        "name": "Andermatt - Bahnhofplatz/Gleis 0 Sportgeschäft",
        "address": "Andermatt - Bahnhofplatz/Gleis 0 Sportgeschäft",
        "lat": 46.63741,
        "lon": 8.59286,
        "region_id": "Andermatt",
        "is_virtual_station": true,
        "capacity": 7
      },
      {
        "station_id": "andermatt_andermatt_gemsstockstrasse_7_werkhof_gemeinde_65ceb0",
        "name": "Andermatt - Gemsstockstrasse 7/Werkhof Gemeinde",
        "address": "Andermatt - Gemsstockstrasse 7/Werkhof Gemeinde",
        "lat": 46.63381,
        "lon": 8.59133,
        "region_id": "Andermatt",
        "is_virtual_station": true,
        "capacity": 7
      },
      {
        "station_id": "andermatt_andermatt_gotthardstrasse_64_hotel_crown_bbb471",
        "name": "Andermatt - Gotthardstrasse 64/Hotel Crown",
        "address": "Andermatt - Gotthardstrasse 64/Hotel Crown",
        "lat": 46.63335,
        "lon": 8.59641,
        "region_id": "Andermatt",
        "is_virtual_station": true,
        "capacity": 7
      },
      {
        "station_id": "andermatt_andermatt_gotthardstrasse_76_hotel_sonne_talmuseum_ursern_b70523",
        "name": "Andermatt - Gotthardstrasse 76/Hotel Sonne/Talmuseum Ursern",
        "address": "Andermatt - Gotthardstrasse 76/Hotel Sonne/Talmuseum Ursern",
        "lat": 46.63295,
        "lon": 8.59509,
        "region_id": "Andermatt",
        "is_virtual_station": true,
        "capacity": 7
      },
      {
        "station_id": "andermatt_andermatt_gotthardstrasse_24_post_seniorenzentrum_arzt_c6b59c",
        "name": "Andermatt - Gotthardstrasse 24/Post/Seniorenzentrum/Arzt",
        "address": "Andermatt - Gotthardstrasse 24/Post/Seniorenzentrum/Arzt",
        "lat": 46.63512,
        "lon": 8.59596,
        "region_id": "Andermatt",
        "is_virtual_station": true,
        "capacity": 7
      },
      {
        "station_id": "andermatt_andermatt_kirchgasse_10_gemeindehaus_kath_kirche_59a8df",
        "name": "Andermatt - Kirchgasse 10/Gemeindehaus/kath. Kirche",
        "address": "Andermatt - Kirchgasse 10/Gemeindehaus/kath. Kirche",
        "lat": 46.63359,
        "lon": 8.59463,
        "region_id": "Andermatt",
        "is_virtual_station": true,
        "capacity": 7
      },
      {
        "station_id": "andermatt_andermatt_kreisel_oberalp_s_d_coop_86ab80",
        "name": "Andermatt - Kreisel Oberalp Süd/Coop",
        "address": "Andermatt - Kreisel Oberalp Süd/Coop",
        "lat": 46.63463,
        "lon": 8.59636,
        "region_id": "Andermatt",
        "is_virtual_station": true,
        "capacity": 7
      },
      {
        "station_id": "andermatt_andermatt_oberalpstrasse_91_wiler_839f66",
        "name": "Andermatt - Oberalpstrasse 91/Wiler",
        "address": "Andermatt - Oberalpstrasse 91/Wiler",
        "lat": 46.636704,
        "lon": 8.60029,
        "region_id": "Andermatt",
        "is_virtual_station": true,
        "capacity": 7
      },
      {
        "station_id": "andermatt_andermatt_reuss_aussenparkplatz_1_2_974a85",
        "name": "Andermatt - Reuss/Aussenparkplatz 1 + 2",
        "address": "Andermatt - Reuss/Aussenparkplatz 1 + 2",
        "lat": 46.63883,
        "lon": 8.5921,
        "region_id": "Andermatt",
        "is_virtual_station": true,
        "capacity": 7
      },
      {
        "station_id": "andermatt_andermatt_reuss_aussenparkplatz_3_14f39e",
        "name": "Andermatt - Reuss/Aussenparkplatz 3",
        "address": "Andermatt - Reuss/Aussenparkplatz 3",
        "lat": 46.63849,
        "lon": 8.59114,
        "region_id": "Andermatt",
        "is_virtual_station": true,
        "capacity": 7
      },
      {
        "station_id": "andermatt_andermatt_reuss_zufahrt_ritomgasse_516eda",
        "name": "Andermatt - Reuss/Zufahrt Ritomgasse",
        "address": "Andermatt - Reuss/Zufahrt Ritomgasse",
        "lat": 46.6409,
        "lon": 8.59012,
        "region_id": "Andermatt",
        "is_virtual_station": true,
        "capacity": 7
      },
      {
        "station_id": "andermatt_andermatt_rest_chuchich_schtli_4eafb7",
        "name": "Andermatt - Rest. Chuchichäschtli",
        "address": "Andermatt - Rest. Chuchichäschtli",
        "lat": 46.6354,
        "lon": 8.60143,
        "region_id": "Andermatt",
        "is_virtual_station": true,
        "capacity": 7
      },
      {
        "station_id": "andermatt_gotthardm_tteli_hospentaltunnel_55f990",
        "name": "Gotthardmätteli - Hospentaltunnel",
        "address": "Gotthardmätteli - Hospentaltunnel",
        "lat": 46.61594,
        "lon": 8.57016,
        "region_id": "Andermatt",
        "is_virtual_station": true,
        "capacity": 7
      },
      {
        "station_id": "andermatt_hospental_gotthardstrasse_15_hotel_st_gotthard_462bc3",
        "name": "Hospental - Gotthardstrasse 15/Hotel St. Gotthard",
        "address": "Hospental - Gotthardstrasse 15/Hotel St. Gotthard",
        "lat": 46.61947,
        "lon": 8.56926,
        "region_id": "Andermatt",
        "is_virtual_station": true,
        "capacity": 7
      },
      {
        "station_id": "andermatt_hospental_gotthardstrasse_23_dorfplatz_df85de",
        "name": "Hospental - Gotthardstrasse 23 - Dorfplatz",
        "address": "Hospental - Gotthardstrasse 23 - Dorfplatz",
        "lat": 46.618876,
        "lon": 8.567845,
        "region_id": "Andermatt",
        "is_virtual_station": true,
        "capacity": 7
      },
      {
        "station_id": "andermatt_oberalppass_bahnhof_schneeh_enerstockbahn_4e5eb8",
        "name": "Oberalppass - Bahnhof/Schneehüenerstockbahn",
        "address": "Oberalppass - Bahnhof/Schneehüenerstockbahn",
        "lat": 46.6602,
        "lon": 8.67084,
        "region_id": "Andermatt",
        "is_virtual_station": true,
        "capacity": 7
      },
      {
        "station_id": "andermatt_oberalppass_galerie_oberalpsee_einstieg_schneeh_enerstock_448704",
        "name": "Oberalppass - Galerie Oberalpsee/Einstieg Schneehüenerstock",
        "address": "Oberalppass - Galerie Oberalpsee/Einstieg Schneehüenerstock",
        "lat": 46.66183,
        "lon": 8.66683,
        "region_id": "Andermatt",
        "is_virtual_station": true,
        "capacity": 7
      },
      {
        "station_id": "andermatt_realp_bahnhof_mgb_autoverlad_9af7e3",
        "name": "Realp - Bahnhof MGB/Autoverlad",
        "address": "Realp - Bahnhof MGB/Autoverlad",
        "lat": 46.59882,
        "lon": 8.50322,
        "region_id": "Andermatt",
        "is_virtual_station": true,
        "capacity": 7
      },
      {
        "station_id": "andermatt_realp_furkastrasse_32_grotto_stella_d_oro_63e838",
        "name": "Realp - Furkastrasse 32/Grotto Stella d'Oro",
        "address": "Realp - Furkastrasse 32/Grotto Stella d'Oro",
        "lat": 46.59972,
        "lon": 8.50332,
        "region_id": "Andermatt",
        "is_virtual_station": true,
        "capacity": 7
      },
      {
        "station_id": "andermatt_wassen_gotthardstrasse_26_russenhaus_mitarbeiter_asa_bd7d64",
        "name": "Wassen - Gotthardstrasse 26/Russenhaus (Mitarbeiter ASA)",
        "address": "Wassen - Gotthardstrasse 26/Russenhaus (Mitarbeiter ASA)",
        "lat": 46.70692,
        "lon": 8.59979,
        "region_id": "Andermatt",
        "is_virtual_station": true,
        "capacity": 7
      },
      {
        "station_id": "andermatt_wassen_gotthardstrasse_71_post_d85dee",
        "name": "Wassen - Gotthardstrasse 71/Post",
        "address": "Wassen - Gotthardstrasse 71/Post",
        "lat": 46.70485,
        "lon": 8.59885,
        "region_id": "Andermatt",
        "is_virtual_station": true,
        "capacity": 7
      },
      {
        "station_id": "andermatt_wassen_sustenstrasse_12_gemeindehaus_08318b",
        "name": "Wassen - Sustenstrasse 12/Gemeindehaus",
        "address": "Wassen - Sustenstrasse 12/Gemeindehaus",
        "lat": 46.70655,
        "lon": 8.59825,
        "region_id": "Andermatt",
        "is_virtual_station": true,
        "capacity": 7
      },
      {
        "station_id": "andermatt_gotthardpass_passh_he_232dff",
        "name": "Gotthardpass - Passhöhe",
        "address": "Gotthardpass - Passhöhe",
        "lat": 46.55942,
        "lon": 8.56065,
        "region_id": "Andermatt",
        "is_virtual_station": true,
        "capacity": 7
      },
      {
        "station_id": "andermatt_unteralp_wendeplatz_rohr_d666ab",
        "name": "Unteralp - Wendeplatz Rohr",
        "address": "Unteralp - Wendeplatz Rohr",
        "lat": 46.62916,
        "lon": 8.61916,
        "region_id": "Andermatt",
        "is_virtual_station": true,
        "capacity": 7
      },
      {
        "station_id": "andermatt_andermatt_teufelsbr_cke_suworow_denkmal_57a316",
        "name": "Andermatt - Teufelsbrücke/Suworow Denkmal",
        "address": "Andermatt - Teufelsbrücke/Suworow Denkmal",
        "lat": 46.6469,
        "lon": 8.59045,
        "region_id": "Andermatt",
        "is_virtual_station": true,
        "capacity": 7
      },
      {
        "station_id": "andermatt_tiefenbach_hotel_tiefenbach_f820a2",
        "name": "Tiefenbach - Hotel Tiefenbach",
        "address": "Tiefenbach - Hotel Tiefenbach",
        "lat": 46.59308,
        "lon": 8.46104,
        "region_id": "Andermatt",
        "is_virtual_station": true,
        "capacity": 7
      },
      {
        "station_id": "andermatt_tiefenbach_berghotel_galenstock_30340a",
        "name": "Tiefenbach - Berghotel Galenstock",
        "address": "Tiefenbach - Berghotel Galenstock",
        "lat": 46.589781,
        "lon": 8.4802025,
        "region_id": "Andermatt",
        "is_virtual_station": true,
        "capacity": 7
      },
      {
        "station_id": "andermatt_nur_f_r_asa_ass_mitarbeiter_abfrutt_407f4e",
        "name": "NUR FÜR ASA/ASS MITARBEITER - Abfrutt",
        "address": "NUR FÜR ASA/ASS MITARBEITER - Abfrutt",
        "lat": 46.6661072,
        "lon": 8.5720863,
        "region_id": "Andermatt",
        "is_virtual_station": true,
        "capacity": 7
      },
      {
        "station_id": "andermatt_tiefenbach_hostetten_52db90",
        "name": "Tiefenbach - Hostetten",
        "address": "Tiefenbach - Hostetten",
        "lat": 46.5903591,
        "lon": 8.4926591,
        "region_id": "Andermatt",
        "is_virtual_station": true,
        "capacity": 7
      },
      {
        "station_id": "andermatt_realp_hotel_post_13b1c1",
        "name": "Realp - Hotel Post",
        "address": "Realp - Hotel Post",
        "lat": 46.5986657,
        "lon": 8.5019482,
        "region_id": "Andermatt",
        "is_virtual_station": true,
        "capacity": 7
      },
      {
        "station_id": "andermatt_andermatt_bodenstrasse_35_718734",
        "name": "Andermatt - Bodenstrasse 35",
        "address": "Andermatt - Bodenstrasse 35",
        "lat": 46.6329658,
        "lon": 8.5893382,
        "region_id": "Andermatt",
        "is_virtual_station": true,
        "capacity": 7
      },
      {
        "station_id": "andermatt_andermatt_gasthaus_skiclub_ff8665",
        "name": "Andermatt - Gasthaus Skiclub",
        "address": "Andermatt - Gasthaus Skiclub",
        "lat": 46.6326414,
        "lon": 8.593896,
        "region_id": "Andermatt",
        "is_virtual_station": true,
        "capacity": 7
      },
      {
        "station_id": "andermatt_andermatt_parkplatz_b_z_003a3f",
        "name": "Andermatt - Parkplatz Bäz",
        "address": "Andermatt - Parkplatz Bäz",
        "lat": 46.638825,
        "lon": 8.586215,
        "region_id": "Andermatt",
        "is_virtual_station": true,
        "capacity": 7
      },
      {
        "station_id": "andermatt_g_schenen_parkplatz_europaplatz_f802a0",
        "name": "Göschenen - Parkplatz Europaplatz",
        "address": "Göschenen - Parkplatz Europaplatz",
        "lat": 46.6701804,
        "lon": 8.5918633,
        "region_id": "Andermatt",
        "is_virtual_station": true,
        "capacity": 7
      },
      {
        "station_id": "andermatt_realp_parkplatz_dfb_aa93bc",
        "name": "Realp - Parkplatz DFB",
        "address": "Realp - Parkplatz DFB",
        "lat": 46.59611,
        "lon": 8.50227,
        "region_id": "Andermatt",
        "is_virtual_station": true,
        "capacity": 7
      },
      {
        "station_id": "andermatt_andermatt_hotel_radisson_blu_4525ce",
        "name": "Andermatt - Hotel Radisson Blu",
        "address": "Andermatt - Hotel Radisson Blu",
        "lat": 46.639817,
        "lon": 8.591333,
        "region_id": "Andermatt",
        "is_virtual_station": true,
        "capacity": 7
      },
      {
        "station_id": "andermatt_andermatt_reuss_parking_f85663",
        "name": "Andermatt - Reuss Parking",
        "address": "Andermatt - Reuss Parking",
        "lat": 46.640169,
        "lon": 8.591916,
        "region_id": "Andermatt",
        "is_virtual_station": true,
        "capacity": 7
      },
      {
        "station_id": "andermatt_andermatt_ara_parking_3cd617",
        "name": "Andermatt - ARA-Parking",
        "address": "Andermatt - ARA-Parking",
        "lat": 46.64164,
        "lon": 8.59108,
        "region_id": "Andermatt",
        "is_virtual_station": true,
        "capacity": 7
      },
      {
        "station_id": "andermatt_meien_f_rlauwi_442c1b",
        "name": "Meien - Fürlauwi",
        "address": "Meien - Fürlauwi",
        "lat": 46.72995,
        "lon": 8.54271,
        "region_id": "Andermatt",
        "is_virtual_station": true,
        "capacity": 7
      },
      {
        "station_id": "andermatt_gurtnellen_restaurant_bergheim_ae17bc",
        "name": "Gurtnellen - Restaurant Bergheim",
        "address": "Gurtnellen - Restaurant Bergheim",
        "lat": 46.73788,
        "lon": 8.62752,
        "region_id": "Andermatt",
        "is_virtual_station": true,
        "capacity": 7
      },
      {
        "station_id": "andermatt_gurtnellen_stalden_a25e54",
        "name": "Gurtnellen - Stalden",
        "address": "Gurtnellen - Stalden",
        "lat": 46.73402,
        "lon": 8.62616,
        "region_id": "Andermatt",
        "is_virtual_station": true,
        "capacity": 7
      },
      {
        "station_id": "andermatt_gurtnellen_feuerwehrlokal_ba84a6",
        "name": "Gurtnellen - Feuerwehrlokal",
        "address": "Gurtnellen - Feuerwehrlokal",
        "lat": 46.72885,
        "lon": 8.62139,
        "region_id": "Andermatt",
        "is_virtual_station": true,
        "capacity": 7
      },
      {
        "station_id": "andermatt_gurtnellen_bahnhofplatz_b33954",
        "name": "Gurtnellen - Bahnhofplatz",
        "address": "Gurtnellen - Bahnhofplatz",
        "lat": 46.72874,
        "lon": 8.62199,
        "region_id": "Andermatt",
        "is_virtual_station": true,
        "capacity": 7
      },
      {
        "station_id": "andermatt_gurtnellen_gemeindeverwaltung_c98ee1",
        "name": "Gurtnellen - Gemeindeverwaltung",
        "address": "Gurtnellen - Gemeindeverwaltung",
        "lat": 46.72743,
        "lon": 8.62189,
        "region_id": "Andermatt",
        "is_virtual_station": true,
        "capacity": 7
      },
      {
        "station_id": "andermatt_gurtnellen_tankstelle_500bfa",
        "name": "Gurtnellen - Tankstelle",
        "address": "Gurtnellen - Tankstelle",
        "lat": 46.73002,
        "lon": 8.62508,
        "region_id": "Andermatt",
        "is_virtual_station": true,
        "capacity": 7
      },
      {
        "station_id": "andermatt_gurtnellen_wiler_hauptstrasse_0e1e47",
        "name": "Gurtnellen - Wiler/Hauptstrasse",
        "address": "Gurtnellen - Wiler/Hauptstrasse",
        "lat": 46.727,
        "lon": 8.62186,
        "region_id": "Andermatt",
        "is_virtual_station": true,
        "capacity": 7
      },
      {
        "station_id": "andermatt_wassen_pfaffensprung_29d91b",
        "name": "Wassen - Pfaffensprung",
        "address": "Wassen - Pfaffensprung",
        "lat": 46.71425,
        "lon": 8.60847,
        "region_id": "Andermatt",
        "is_virtual_station": true,
        "capacity": 7
      },
      {
        "station_id": "andermatt_meien_husen_1b7081",
        "name": "Meien - Husen",
        "address": "Meien - Husen",
        "lat": 46.71818,
        "lon": 8.57401,
        "region_id": "Andermatt",
        "is_virtual_station": true,
        "capacity": 7
      },
      {
        "station_id": "andermatt_meien_d_rfli_5228fb",
        "name": "Meien - Dörfli",
        "address": "Meien - Dörfli",
        "lat": 46.72314,
        "lon": 8.55767,
        "region_id": "Andermatt",
        "is_virtual_station": true,
        "capacity": 7
      },
      {
        "station_id": "andermatt_meien_kapelle_629cef",
        "name": "Meien - Kapelle",
        "address": "Meien - Kapelle",
        "lat": 46.72591,
        "lon": 8.55217,
        "region_id": "Andermatt",
        "is_virtual_station": true,
        "capacity": 7
      },
      {
        "station_id": "andermatt_meien_f_rnigen_303db6",
        "name": "Meien - Färnigen",
        "address": "Meien - Färnigen",
        "lat": 46.73441,
        "lon": 8.52275,
        "region_id": "Andermatt",
        "is_virtual_station": true,
        "capacity": 7
      },
      {
        "station_id": "andermatt_meien_gorezmettlen_44bdc5",
        "name": "Meien - Gorezmettlen",
        "address": "Meien - Gorezmettlen",
        "lat": 46.74375,
        "lon": 8.50823,
        "region_id": "Andermatt",
        "is_virtual_station": true,
        "capacity": 7
      },
      {
        "station_id": "andermatt_sustenpass_sustenbr_ggli_914a7d",
        "name": "Sustenpass - Sustenbrüggli",
        "address": "Sustenpass - Sustenbrüggli",
        "lat": 46.74673,
        "lon": 8.46777,
        "region_id": "Andermatt",
        "is_virtual_station": true,
        "capacity": 7
      },
      {
        "station_id": "andermatt_gurtnellen_g_etli_steinbruch_cf9cbb",
        "name": "Gurtnellen - Güetli/Steinbruch",
        "address": "Gurtnellen - Güetli/Steinbruch",
        "lat": 46.73413,
        "lon": 8.63148,
        "region_id": "Andermatt",
        "is_virtual_station": true,
        "capacity": 7
      },
      {
        "station_id": "andermatt_gotthardm_tteli_aschlagboden_a4355a",
        "name": "Gotthardmätteli - Aschlagboden",
        "address": "Gotthardmätteli - Aschlagboden",
        "lat": 46.5992,
        "lon": 8.56288,
        "region_id": "Andermatt",
        "is_virtual_station": true,
        "capacity": 7
      },
      {
        "station_id": "andermatt_n_tschen_alphitt_61e39d",
        "name": "Nätschen - Alphittä",
        "address": "Nätschen - Alphittä",
        "lat": 46.64231,
        "lon": 8.61271,
        "region_id": "Andermatt",
        "is_virtual_station": true,
        "capacity": 7
      },
      {
        "station_id": "andermatt_tiefenbach_geren_4f7ec8",
        "name": "Tiefenbach - Geren",
        "address": "Tiefenbach - Geren",
        "lat": 46.58686,
        "lon": 8.49213,
        "region_id": "Andermatt",
        "is_virtual_station": true,
        "capacity": 7
      },
      {
        "station_id": "andermatt_vermigelboden_heuplangge_3bfd1a",
        "name": "Vermigelboden - Heuplangge",
        "address": "Vermigelboden - Heuplangge",
        "lat": 46.62368,
        "lon": 8.63346,
        "region_id": "Andermatt",
        "is_virtual_station": true,
        "capacity": 7
      },
      {
        "station_id": "andermatt_vermigelboden_chalberbiel_1a088c",
        "name": "Vermigelboden - Chalberbiel",
        "address": "Vermigelboden - Chalberbiel",
        "lat": 46.59607,
        "lon": 8.659,
        "region_id": "Andermatt",
        "is_virtual_station": true,
        "capacity": 7
      },
      {
        "station_id": "andermatt_wittenwasseren_oberstafel_f45773",
        "name": "Wittenwasseren - Oberstafel",
        "address": "Wittenwasseren - Oberstafel",
        "lat": 46.54833,
        "lon": 8.50011,
        "region_id": "Andermatt",
        "is_virtual_station": true,
        "capacity": 7
      },
      {
        "station_id": "andermatt_wittenwasseren_ober_ch_seren_31123b",
        "name": "Wittenwasseren - Ober Chäseren",
        "address": "Wittenwasseren - Ober Chäseren",
        "lat": 46.56535,
        "lon": 8.49427,
        "region_id": "Andermatt",
        "is_virtual_station": true,
        "capacity": 7
      },
      {
        "station_id": "andermatt_tiefenbach_schweig_ab95c9",
        "name": "Tiefenbach - Schweig",
        "address": "Tiefenbach - Schweig",
        "lat": 46.58018,
        "lon": 8.49247,
        "region_id": "Andermatt",
        "is_virtual_station": true,
        "capacity": 7
      },
      {
        "station_id": "andermatt_furkapass_furkablick_ea45ee",
        "name": "Furkapass - Furkablick",
        "address": "Furkapass - Furkablick",
        "lat": 46.57642,
        "lon": 8.42188,
        "region_id": "Andermatt",
        "is_virtual_station": true,
        "capacity": 7
      },
      {
        "station_id": "andermatt_furkapass_sidelenbach_084551",
        "name": "Furkapass - Sidelenbach",
        "address": "Furkapass - Sidelenbach",
        "lat": 46.58803,
        "lon": 8.43291,
        "region_id": "Andermatt",
        "is_virtual_station": true,
        "capacity": 7
      },
      {
        "station_id": "andermatt_wassen_gotthardstrasse_14_4a8d9d",
        "name": "Wassen - Gotthardstrasse 14",
        "address": "Wassen - Gotthardstrasse 14",
        "lat": 46.70743,
        "lon": 8.60343,
        "region_id": "Andermatt",
        "is_virtual_station": true,
        "capacity": 7
      },
      {
        "station_id": "andermatt_g_schenen_mybuxi_zentrale_5025b7",
        "name": "Göschenen - mybuxi Zentrale",
        "address": "Göschenen - mybuxi Zentrale",
        "lat": 46.66457,
        "lon": 8.58814,
        "region_id": "Andermatt",
        "is_virtual_station": true,
        "capacity": 7
      },
      {
        "station_id": "andermatt_sustenpass_passh_he_c608da",
        "name": "Sustenpass - Passhöhe",
        "address": "Sustenpass - Passhöhe",
        "lat": 46.7295,
        "lon": 8.44689,
        "region_id": "Andermatt",
        "is_virtual_station": true,
        "capacity": 7
      },
      {
        "station_id": "andermatt_n_tschen_wachthuus_35cd3b",
        "name": "Nätschen - Wachthuus",
        "address": "Nätschen - Wachthuus",
        "lat": 46.65176,
        "lon": 8.61782,
        "region_id": "Andermatt",
        "is_virtual_station": true,
        "capacity": 7
      },
      {
        "station_id": "andermatt_gurtnellen_bifang_ccb654",
        "name": "Gurtnellen - Bifang",
        "address": "Gurtnellen - Bifang",
        "lat": 46.74571,
        "lon": 8.63046,
        "region_id": "Andermatt",
        "is_virtual_station": true,
        "capacity": 7
      },
      {
        "station_id": "andermatt_b_z_festung_e50896",
        "name": "Bäz - Festung",
        "address": "Bäz - Festung",
        "lat": 46.6442,
        "lon": 8.5803,
        "region_id": "Andermatt",
        "is_virtual_station": true,
        "capacity": 7
      },
      {
        "station_id": "andermatt_gotthard_hospiz_ddae18",
        "name": "Gotthard-Hospiz",
        "address": "Gotthard-Hospiz",
        "lat": 46.557695,
        "lon": 8.566208,
        "region_id": "Andermatt",
        "is_virtual_station": true,
        "capacity": 7
      },
      {
        "station_id": "belp_belp_h_hnerhubelstrasse_12_40bfd7",
        "name": "Belp - Hühnerhubelstrasse 12",
        "address": "Belp - Hühnerhubelstrasse 12",
        "lat": 46.90172,
        "lon": 7.4979,
        "region_id": "Belp",
        "is_virtual_station": true,
        "capacity": 7
      },
      {
        "station_id": "belp_belp_aemmenmattstr_6_kreisel_9f06ec",
        "name": "Belp - Aemmenmattstr. 6 / Kreisel",
        "address": "Belp - Aemmenmattstr. 6 / Kreisel",
        "lat": 46.90045,
        "lon": 7.5032,
        "region_id": "Belp",
        "is_virtual_station": true,
        "capacity": 7
      },
      {
        "station_id": "belp_belp_flugplatzstrasse_16_giessenbad_73676f",
        "name": "Belp - Flugplatzstrasse 16 / Giessenbad",
        "address": "Belp - Flugplatzstrasse 16 / Giessenbad",
        "lat": 46.91039,
        "lon": 7.50555,
        "region_id": "Belp",
        "is_virtual_station": true,
        "capacity": 7
      },
      {
        "station_id": "belp_belp_h_hnerhubelstrasse_96_a_fda2ae",
        "name": "Belp - Hühnerhubelstrasse 96 A",
        "address": "Belp - Hühnerhubelstrasse 96 A",
        "lat": 46.90624,
        "lon": 7.4945,
        "region_id": "Belp",
        "is_virtual_station": true,
        "capacity": 7
      },
      {
        "station_id": "belp_belp_h_hnerhubelstrasse_95_2da504",
        "name": "Belp - Hühnerhubelstrasse 95 ",
        "address": "Belp - Hühnerhubelstrasse 95 ",
        "lat": 46.90546,
        "lon": 7.49435,
        "region_id": "Belp",
        "is_virtual_station": true,
        "capacity": 7
      },
      {
        "station_id": "belp_belp_engeweg_23_d4bb04",
        "name": "Belp - Engeweg 23",
        "address": "Belp - Engeweg 23",
        "lat": 46.89916,
        "lon": 7.49483,
        "region_id": "Belp",
        "is_virtual_station": true,
        "capacity": 7
      },
      {
        "station_id": "belp_belp_zelgweg_17_6edef2",
        "name": "Belp - Zelgweg 17",
        "address": "Belp - Zelgweg 17",
        "lat": 46.89822,
        "lon": 7.49478,
        "region_id": "Belp",
        "is_virtual_station": true,
        "capacity": 7
      },
      {
        "station_id": "belp_belp_moosblickweg_5_24f115",
        "name": "Belp - Moosblickweg 5",
        "address": "Belp - Moosblickweg 5",
        "lat": 46.89806,
        "lon": 7.48953,
        "region_id": "Belp",
        "is_virtual_station": true,
        "capacity": 7
      },
      {
        "station_id": "belp_belp_finkenweg_14_5888f7",
        "name": "Belp - Finkenweg 14",
        "address": "Belp - Finkenweg 14",
        "lat": 46.89474,
        "lon": 7.49538,
        "region_id": "Belp",
        "is_virtual_station": true,
        "capacity": 7
      },
      {
        "station_id": "belp_belp_schl_ssliweg_5_88e870",
        "name": "Belp - Schlössliweg 5 ",
        "address": "Belp - Schlössliweg 5 ",
        "lat": 46.89433,
        "lon": 7.49912,
        "region_id": "Belp",
        "is_virtual_station": true,
        "capacity": 7
      },
      {
        "station_id": "belp_belp_dorfstrasse_12_pp_dorfschulhaus_cbe9b4",
        "name": "Belp - Dorfstrasse 12 / PP Dorfschulhaus",
        "address": "Belp - Dorfstrasse 12 / PP Dorfschulhaus",
        "lat": 46.89254,
        "lon": 7.49862,
        "region_id": "Belp",
        "is_virtual_station": true,
        "capacity": 7
      },
      {
        "station_id": "belp_belp_viehweidstrasse_3_8dd7ed",
        "name": "Belp - Viehweidstrasse 3",
        "address": "Belp - Viehweidstrasse 3",
        "lat": 46.89185,
        "lon": 7.50848,
        "region_id": "Belp",
        "is_virtual_station": true,
        "capacity": 7
      },
      {
        "station_id": "belp_belp_thalgutstrasse_schulhaus_m_hlematt_cf850e",
        "name": "Belp - Thalgutstrasse / Schulhaus Mühlematt",
        "address": "Belp - Thalgutstrasse / Schulhaus Mühlematt",
        "lat": 46.88611,
        "lon": 7.50337,
        "region_id": "Belp",
        "is_virtual_station": true,
        "capacity": 7
      },
      {
        "station_id": "belp_belp_ahornweg_23_wendeplatz_6ec7c0",
        "name": "Belp - Ahornweg 23 / Wendeplatz",
        "address": "Belp - Ahornweg 23 / Wendeplatz",
        "lat": 46.88513,
        "lon": 7.50056,
        "region_id": "Belp",
        "is_virtual_station": true,
        "capacity": 7
      },
      {
        "station_id": "belp_belp_birkenweg_76_392b3c",
        "name": "Belp - Birkenweg 76",
        "address": "Belp - Birkenweg 76",
        "lat": 46.8845,
        "lon": 7.49722,
        "region_id": "Belp",
        "is_virtual_station": true,
        "capacity": 7
      },
      {
        "station_id": "belp_belp_unteraar_b0dec0",
        "name": "Belp - Unteraar",
        "address": "Belp - Unteraar",
        "lat": 46.87615,
        "lon": 7.53395,
        "region_id": "Belp",
        "is_virtual_station": true,
        "capacity": 7
      },
      {
        "station_id": "belp_belp_linden_4c_belpberg_36b37e",
        "name": "Belp - Linden 4C / Belpberg",
        "address": "Belp - Linden 4C / Belpberg",
        "lat": 46.8684,
        "lon": 7.52164,
        "region_id": "Belp",
        "is_virtual_station": true,
        "capacity": 7
      },
      {
        "station_id": "belp_belp_wylermoos_6_belpberg_5bfcb4",
        "name": "Belp - Wylermoos 6 / Belpberg",
        "address": "Belp - Wylermoos 6 / Belpberg",
        "lat": 46.86414,
        "lon": 7.52938,
        "region_id": "Belp",
        "is_virtual_station": true,
        "capacity": 7
      },
      {
        "station_id": "belp_belp_grossmatt_belpberg_5b0b76",
        "name": "Belp - Grossmatt / Belpberg",
        "address": "Belp - Grossmatt / Belpberg",
        "lat": 46.86257,
        "lon": 7.53293,
        "region_id": "Belp",
        "is_virtual_station": true,
        "capacity": 7
      },
      {
        "station_id": "belp_belp_sch_nenbrunnen_48_belpberg_1b60a8",
        "name": "Belp - Schönenbrunnen 48 / Belpberg",
        "address": "Belp - Schönenbrunnen 48 / Belpberg",
        "lat": 46.85972,
        "lon": 7.51336,
        "region_id": "Belp",
        "is_virtual_station": true,
        "capacity": 7
      },
      {
        "station_id": "belp_belp_seftigenstr_116_5b9255",
        "name": "Belp - Seftigenstr. 116 ",
        "address": "Belp - Seftigenstr. 116 ",
        "lat": 46.88957,
        "lon": 7.49444,
        "region_id": "Belp",
        "is_virtual_station": true,
        "capacity": 7
      },
      {
        "station_id": "belp_belp_aemmenmattstr_4_163b79",
        "name": "Belp - Aemmenmattstr. 4",
        "address": "Belp - Aemmenmattstr. 4",
        "lat": 46.90012,
        "lon": 7.50197,
        "region_id": "Belp",
        "is_virtual_station": true,
        "capacity": 7
      },
      {
        "station_id": "belp_belp_eisselweg_6_3d72f4",
        "name": "Belp - Eisselweg 6",
        "address": "Belp - Eisselweg 6",
        "lat": 46.89656,
        "lon": 7.50567,
        "region_id": "Belp",
        "is_virtual_station": true,
        "capacity": 7
      },
      {
        "station_id": "belp_belp_muristrasse_27_e491ec",
        "name": "Belp - Muristrasse 27",
        "address": "Belp - Muristrasse 27",
        "lat": 46.89772,
        "lon": 7.50077,
        "region_id": "Belp",
        "is_virtual_station": true,
        "capacity": 7
      },
      {
        "station_id": "belp_belp_neumattstrasse_8_3f3c35",
        "name": "Belp - Neumattstrasse 8",
        "address": "Belp - Neumattstrasse 8",
        "lat": 46.89682,
        "lon": 7.4962,
        "region_id": "Belp",
        "is_virtual_station": true,
        "capacity": 7
      },
      {
        "station_id": "belp_belp_seftigenstrasse_46_ab46bc",
        "name": "Belp - Seftigenstrasse 46",
        "address": "Belp - Seftigenstrasse 46",
        "lat": 46.89629,
        "lon": 7.48966,
        "region_id": "Belp",
        "is_virtual_station": true,
        "capacity": 7
      },
      {
        "station_id": "belp_belp_oberriedweg_13_6a9f94",
        "name": "Belp - Oberriedweg 13",
        "address": "Belp - Oberriedweg 13",
        "lat": 46.89004,
        "lon": 7.49635,
        "region_id": "Belp",
        "is_virtual_station": true,
        "capacity": 7
      },
      {
        "station_id": "belp_belp_hohburgstrasse_27_d16c3a",
        "name": "Belp - Hohburgstrasse 27",
        "address": "Belp - Hohburgstrasse 27",
        "lat": 46.8905,
        "lon": 7.50654,
        "region_id": "Belp",
        "is_virtual_station": true,
        "capacity": 7
      },
      {
        "station_id": "belp_belp_b_tzackerweg_53_viehweid_12cf80",
        "name": "Belp - Bützackerweg 53 / Viehweid",
        "address": "Belp - Bützackerweg 53 / Viehweid",
        "lat": 46.8902,
        "lon": 7.51868,
        "region_id": "Belp",
        "is_virtual_station": true,
        "capacity": 7
      },
      {
        "station_id": "belp_belp_breitmattweg_1_toffenholz_f64feb",
        "name": "Belp - Breitmattweg 1 / Toffenholz",
        "address": "Belp - Breitmattweg 1 / Toffenholz",
        "lat": 46.87581,
        "lon": 7.49467,
        "region_id": "Belp",
        "is_virtual_station": true,
        "capacity": 7
      },
      {
        "station_id": "belp_belp_m_hlestrasse_bushaltestelle_greulebach_026960",
        "name": "Belp - Mühlestrasse Bushaltestelle Greulebach",
        "address": "Belp - Mühlestrasse Bushaltestelle Greulebach",
        "lat": 46.88157,
        "lon": 7.50559,
        "region_id": "Belp",
        "is_virtual_station": true,
        "capacity": 7
      },
      {
        "station_id": "belp_belp_stockhornweg_2_riedli_0f493a",
        "name": "Belp - Stockhornweg 2 / Riedli",
        "address": "Belp - Stockhornweg 2 / Riedli",
        "lat": 46.88073,
        "lon": 7.50834,
        "region_id": "Belp",
        "is_virtual_station": true,
        "capacity": 7
      },
      {
        "station_id": "belp_belp_oberh_usern_37_schulhaus_belpberg_b06ea5",
        "name": "Belp - Oberhäusern  37, Schulhaus / Belpberg",
        "address": "Belp - Oberhäusern  37, Schulhaus / Belpberg",
        "lat": 46.87242,
        "lon": 7.52006,
        "region_id": "Belp",
        "is_virtual_station": true,
        "capacity": 7
      },
      {
        "station_id": "belp_belp_neuhaus_108_belpberg_07ca35",
        "name": "Belp - Neuhaus 108 / Belpberg",
        "address": "Belp - Neuhaus 108 / Belpberg",
        "lat": 46.86688,
        "lon": 7.52629,
        "region_id": "Belp",
        "is_virtual_station": true,
        "capacity": 7
      },
      {
        "station_id": "belp_belp_pt_717_verzweigung_belpbergwald_f036d8",
        "name": "Belp - Pt. 717 / Verzweigung Belpbergwald",
        "address": "Belp - Pt. 717 / Verzweigung Belpbergwald",
        "lat": 46.86577,
        "lon": 7.5117,
        "region_id": "Belp",
        "is_virtual_station": true,
        "capacity": 7
      },
      {
        "station_id": "belp_belp_h_hnerhubelstr_11_pp_schulanlage_neumatt_892174",
        "name": "Belp - Hühnerhubelstr. 11 / PP Schulanlage Neumatt",
        "address": "Belp - Hühnerhubelstr. 11 / PP Schulanlage Neumatt",
        "lat": 46.90017,
        "lon": 7.49989,
        "region_id": "Belp",
        "is_virtual_station": true,
        "capacity": 7
      },
      {
        "station_id": "belp_belp_einschlagweg_19_familieng_rten_bbef79",
        "name": "Belp - Einschlagweg 19 / Familiengärten",
        "address": "Belp - Einschlagweg 19 / Familiengärten",
        "lat": 46.89609,
        "lon": 7.50871,
        "region_id": "Belp",
        "is_virtual_station": true,
        "capacity": 7
      },
      {
        "station_id": "belp_belp_j_gerheimweg_allmendweg_8a8d3f",
        "name": "Belp - Jägerheimweg /Allmendweg",
        "address": "Belp - Jägerheimweg /Allmendweg",
        "lat": 46.89513,
        "lon": 7.51773,
        "region_id": "Belp",
        "is_virtual_station": true,
        "capacity": 7
      },
      {
        "station_id": "belp_belp_flugplatzstrasse_2_giessenbad_sportanlagen_1be680",
        "name": "Belp - Flugplatzstrasse 2 / Giessenbad Sportanlagen",
        "address": "Belp - Flugplatzstrasse 2 / Giessenbad Sportanlagen",
        "lat": 46.90932,
        "lon": 7.50558,
        "region_id": "Belp",
        "is_virtual_station": true,
        "capacity": 7
      },
      {
        "station_id": "belp_belp_steinbach_haltestelle_bls_68855d",
        "name": "Belp - Steinbach Haltestelle BLS ",
        "address": "Belp - Steinbach Haltestelle BLS ",
        "lat": 46.89534,
        "lon": 7.4932,
        "region_id": "Belp",
        "is_virtual_station": true,
        "capacity": 7
      },
      {
        "station_id": "belp_belp_rubigenstrasse_abzw_muristrasse_6e32c4",
        "name": "Belp - Rubigenstrasse Abzw. Muristrasse",
        "address": "Belp - Rubigenstrasse Abzw. Muristrasse",
        "lat": 46.89502,
        "lon": 7.49822,
        "region_id": "Belp",
        "is_virtual_station": true,
        "capacity": 7
      },
      {
        "station_id": "belp_belp_dorfstrasse_44_523f25",
        "name": "Belp - Dorfstrasse 44 ",
        "address": "Belp - Dorfstrasse 44 ",
        "lat": 46.8905,
        "lon": 7.5013,
        "region_id": "Belp",
        "is_virtual_station": true,
        "capacity": 7
      },
      {
        "station_id": "belp_belp_dorfstrasse_52_b33d8f",
        "name": "Belp - Dorfstrasse 52 ",
        "address": "Belp - Dorfstrasse 52 ",
        "lat": 46.88976,
        "lon": 7.50103,
        "region_id": "Belp",
        "is_virtual_station": true,
        "capacity": 7
      },
      {
        "station_id": "belp_belp_seftigenstr_101_978470",
        "name": "Belp - Seftigenstr. 101",
        "address": "Belp - Seftigenstr. 101",
        "lat": 46.8911,
        "lon": 7.49453,
        "region_id": "Belp",
        "is_virtual_station": true,
        "capacity": 7
      },
      {
        "station_id": "belp_belp_k_sereistrasse_9a_523c3e",
        "name": "Belp - Käsereistrasse 9a ",
        "address": "Belp - Käsereistrasse 9a ",
        "lat": 46.89191,
        "lon": 7.50268,
        "region_id": "Belp",
        "is_virtual_station": true,
        "capacity": 7
      },
      {
        "station_id": "belp_lehn_2a_5b2897",
        "name": "Lehn 2A",
        "address": "Lehn 2A",
        "lat": 46.88744,
        "lon": 7.52638,
        "region_id": "Belp",
        "is_virtual_station": true,
        "capacity": 7
      },
      {
        "station_id": "belp_belp_kastanienweg_73_ca5649",
        "name": "Belp - Kastanienweg 73",
        "address": "Belp - Kastanienweg 73",
        "lat": 46.88285,
        "lon": 7.49963,
        "region_id": "Belp",
        "is_virtual_station": true,
        "capacity": 7
      },
      {
        "station_id": "belp_belp_fuchsacher_23_belpberg_47f3e2",
        "name": "Belp - Fuchsacher 23 / Belpberg",
        "address": "Belp - Fuchsacher 23 / Belpberg",
        "lat": 46.87797,
        "lon": 7.52471,
        "region_id": "Belp",
        "is_virtual_station": true,
        "capacity": 7
      },
      {
        "station_id": "belp_belp_hofmatt_26_a_belpberg_90c0c2",
        "name": "Belp - Hofmatt 26 A / Belpberg",
        "address": "Belp - Hofmatt 26 A / Belpberg",
        "lat": 46.87309,
        "lon": 7.52495,
        "region_id": "Belp",
        "is_virtual_station": true,
        "capacity": 7
      },
      {
        "station_id": "belp_belp_byfang_21_belpberg_98c48a",
        "name": "Belp - Byfang 21 / Belpberg",
        "address": "Belp - Byfang 21 / Belpberg",
        "lat": 46.86751,
        "lon": 7.53198,
        "region_id": "Belp",
        "is_virtual_station": true,
        "capacity": 7
      },
      {
        "station_id": "belp_belp_hofstetten_45_belpberg_f559ce",
        "name": "Belp - Hofstetten 45 / Belpberg",
        "address": "Belp - Hofstetten 45 / Belpberg",
        "lat": 46.85534,
        "lon": 7.52207,
        "region_id": "Belp",
        "is_virtual_station": true,
        "capacity": 7
      },
      {
        "station_id": "belp_belp_h_hnerhubelstrasse_74_f31ec6",
        "name": "Belp - Hühnerhubelstrasse 74",
        "address": "Belp - Hühnerhubelstrasse 74",
        "lat": 46.90512,
        "lon": 7.49528,
        "region_id": "Belp",
        "is_virtual_station": true,
        "capacity": 7
      },
      {
        "station_id": "belp_belp_sch_nmattweg_30_674275",
        "name": "Belp - Schönmattweg 30",
        "address": "Belp - Schönmattweg 30",
        "lat": 46.89709,
        "lon": 7.4985,
        "region_id": "Belp",
        "is_virtual_station": true,
        "capacity": 7
      },
      {
        "station_id": "belp_belp_seftigenstr_24_b72df3",
        "name": "Belp - Seftigenstr. 24",
        "address": "Belp - Seftigenstr. 24",
        "lat": 46.89846,
        "lon": 7.48794,
        "region_id": "Belp",
        "is_virtual_station": true,
        "capacity": 7
      },
      {
        "station_id": "belp_belp_gantrischweg_2_m_hlematt_eb7287",
        "name": "Belp - Gantrischweg 2 / Mühlematt",
        "address": "Belp - Gantrischweg 2 / Mühlematt",
        "lat": 46.88405,
        "lon": 7.50279,
        "region_id": "Belp",
        "is_virtual_station": true,
        "capacity": 7
      },
      {
        "station_id": "belp_belp_muristrasse_64_346837",
        "name": "Belp - Muristrasse 64",
        "address": "Belp - Muristrasse 64",
        "lat": 46.90212,
        "lon": 7.49955,
        "region_id": "Belp",
        "is_virtual_station": true,
        "capacity": 7
      },
      {
        "station_id": "belp_belp_aemmenmattstr_45_47292f",
        "name": "Belp - Aemmenmattstr. 45",
        "address": "Belp - Aemmenmattstr. 45",
        "lat": 46.90261,
        "lon": 7.50641,
        "region_id": "Belp",
        "is_virtual_station": true,
        "capacity": 7
      },
      {
        "station_id": "belp_belp_eisselweg_22_e2e528",
        "name": "Belp - Eisselweg 22 ",
        "address": "Belp - Eisselweg 22 ",
        "lat": 46.89861,
        "lon": 7.50611,
        "region_id": "Belp",
        "is_virtual_station": true,
        "capacity": 7
      },
      {
        "station_id": "belp_belp_h_hnerhubel_975_f46d1c",
        "name": "Belp - Hühnerhubel 975",
        "address": "Belp - Hühnerhubel 975",
        "lat": 46.91004,
        "lon": 7.49197,
        "region_id": "Belp",
        "is_virtual_station": true,
        "capacity": 7
      },
      {
        "station_id": "belp_belp_dorfstrasse_32_078235",
        "name": "Belp - Dorfstrasse 32 ",
        "address": "Belp - Dorfstrasse 32 ",
        "lat": 46.89114,
        "lon": 7.49989,
        "region_id": "Belp",
        "is_virtual_station": true,
        "capacity": 7
      },
      {
        "station_id": "belp_belp_burgg_ssli_0acc4f",
        "name": "Belp - Burggässli ",
        "address": "Belp - Burggässli ",
        "lat": 46.89157,
        "lon": 7.50364,
        "region_id": "Belp",
        "is_virtual_station": true,
        "capacity": 7
      },
      {
        "station_id": "belp_belp_fahrhubelweg_2_37f897",
        "name": "Belp - Fahrhubelweg 2 ",
        "address": "Belp - Fahrhubelweg 2 ",
        "lat": 46.88878,
        "lon": 7.52295,
        "region_id": "Belp",
        "is_virtual_station": true,
        "capacity": 7
      },
      {
        "station_id": "belp_belp_bahnhof_bls_4203c2",
        "name": "Belp - Bahnhof BLS",
        "address": "Belp - Bahnhof BLS",
        "lat": 46.88879,
        "lon": 7.49892,
        "region_id": "Belp",
        "is_virtual_station": true,
        "capacity": 7
      },
      {
        "station_id": "belp_belp_s_getstrasse_6_258574",
        "name": "Belp - Sägetstrasse 6 ",
        "address": "Belp - Sägetstrasse 6 ",
        "lat": 46.88887,
        "lon": 7.50088,
        "region_id": "Belp",
        "is_virtual_station": true,
        "capacity": 7
      },
      {
        "station_id": "belp_belp_m_hlestrasse_8_dc7288",
        "name": "Belp - Mühlestrasse 8",
        "address": "Belp - Mühlestrasse 8",
        "lat": 46.88871,
        "lon": 7.50231,
        "region_id": "Belp",
        "is_virtual_station": true,
        "capacity": 7
      },
      {
        "station_id": "belp_belp_g_terstrasse_13_gemeindeverwaltung_740793",
        "name": "Belp - Güterstrasse 13 / Gemeindeverwaltung",
        "address": "Belp - Güterstrasse 13 / Gemeindeverwaltung",
        "lat": 46.8878,
        "lon": 7.49943,
        "region_id": "Belp",
        "is_virtual_station": true,
        "capacity": 7
      },
      {
        "station_id": "belp_belp_zimmerwaldweg_7_f025ae",
        "name": "Belp - Zimmerwaldweg 7",
        "address": "Belp - Zimmerwaldweg 7",
        "lat": 46.88647,
        "lon": 7.4947,
        "region_id": "Belp",
        "is_virtual_station": true,
        "capacity": 7
      },
      {
        "station_id": "belp_belp_s_getstrasse_33_e9445f",
        "name": "Belp - Sägetstrasse 33 ",
        "address": "Belp - Sägetstrasse 33 ",
        "lat": 46.88657,
        "lon": 7.49942,
        "region_id": "Belp",
        "is_virtual_station": true,
        "capacity": 7
      },
      {
        "station_id": "belp_belp_riedlistrasse_2_bushaltestelle_riedli_36c382",
        "name": "Belp - Riedlistrasse 2 / Bushaltestelle Riedli",
        "address": "Belp - Riedlistrasse 2 / Bushaltestelle Riedli",
        "lat": 46.87857,
        "lon": 7.50441,
        "region_id": "Belp",
        "is_virtual_station": true,
        "capacity": 7
      },
      {
        "station_id": "belp_belp_hargarten_111_9d7ada",
        "name": "Belp - Hargarten 111",
        "address": "Belp - Hargarten 111",
        "lat": 46.87016,
        "lon": 7.50496,
        "region_id": "Belp",
        "is_virtual_station": true,
        "capacity": 7
      },
      {
        "station_id": "belp_belp_heitern_423_54526a",
        "name": "Belp - Heitern 423",
        "address": "Belp - Heitern 423",
        "lat": 46.85768,
        "lon": 7.50534,
        "region_id": "Belp",
        "is_virtual_station": true,
        "capacity": 7
      },
      {
        "station_id": "belp_belp_airportfitness_ba0fff",
        "name": "Belp – Airportfitness",
        "address": "Belp – Airportfitness",
        "lat": 46.90459,
        "lon": 7.49557,
        "region_id": "Belp",
        "is_virtual_station": true,
        "capacity": 7
      },
      {
        "station_id": "belp_kehrsatz_schulhaus_selhofen_21_9f5e2b",
        "name": "Kehrsatz - Schulhaus, Selhofen 21",
        "address": "Kehrsatz - Schulhaus, Selhofen 21",
        "lat": 46.91572,
        "lon": 7.47469,
        "region_id": "Belp",
        "is_virtual_station": true,
        "capacity": 7
      },
      {
        "station_id": "belp_kehrsatz_sandb_hl_44_d59bfa",
        "name": "Kehrsatz - Sandbühl 44",
        "address": "Kehrsatz - Sandbühl 44",
        "lat": 46.91799,
        "lon": 7.47326,
        "region_id": "Belp",
        "is_virtual_station": true,
        "capacity": 7
      },
      {
        "station_id": "belp_belp_hargarten_433a_3c7edc",
        "name": "Belp - Hargarten 433A",
        "address": "Belp - Hargarten 433A",
        "lat": 46.87664,
        "lon": 7.50395,
        "region_id": "Belp",
        "is_virtual_station": true,
        "capacity": 7
      },
      {
        "station_id": "belp_belp_eggenweg_3_59909a",
        "name": "Belp - Eggenweg 3",
        "address": "Belp - Eggenweg 3",
        "lat": 46.892909,
        "lon": 7.49773,
        "region_id": "Belp",
        "is_virtual_station": true,
        "capacity": 7
      },
      {
        "station_id": "belp_belp_j_gerheimweg_270_637f3e",
        "name": "Belp - Jägerheimweg 270",
        "address": "Belp - Jägerheimweg 270",
        "lat": 46.89763,
        "lon": 7.51628,
        "region_id": "Belp",
        "is_virtual_station": true,
        "capacity": 7
      },
      {
        "station_id": "belp_belp_eichholzweg_20_f280a0",
        "name": "Belp - Eichholzweg 20",
        "address": "Belp - Eichholzweg 20",
        "lat": 46.90247,
        "lon": 7.50296,
        "region_id": "Belp",
        "is_virtual_station": true,
        "capacity": 7
      },
      {
        "station_id": "belp_belp_seftigenstr_120_8ace99",
        "name": "Belp - Seftigenstr. 120 ",
        "address": "Belp - Seftigenstr. 120 ",
        "lat": 46.88891,
        "lon": 7.49505,
        "region_id": "Belp",
        "is_virtual_station": true,
        "capacity": 7
      },
      {
        "station_id": "belp_belp_j_gerheimweg_285_e78831",
        "name": "Belp - Jägerheimweg 285",
        "address": "Belp - Jägerheimweg 285",
        "lat": 46.90885,
        "lon": 7.51142,
        "region_id": "Belp",
        "is_virtual_station": true,
        "capacity": 7
      },
      {
        "station_id": "belp_belp_brunnenstrasse_15_32bbfc",
        "name": "Belp - Brunnenstrasse 15",
        "address": "Belp - Brunnenstrasse 15",
        "lat": 46.89702,
        "lon": 7.49454,
        "region_id": "Belp",
        "is_virtual_station": true,
        "capacity": 7
      },
      {
        "station_id": "belp_belp_rubigenstr_46_fe4512",
        "name": "Belp - Rubigenstr. 46 ",
        "address": "Belp - Rubigenstr. 46 ",
        "lat": 46.89198,
        "lon": 7.50389,
        "region_id": "Belp",
        "is_virtual_station": true,
        "capacity": 7
      },
      {
        "station_id": "belp_belp_neuhaus_5_belpberg_8d1932",
        "name": "Belp - Neuhaus 5 / Belpberg",
        "address": "Belp - Neuhaus 5 / Belpberg",
        "lat": 46.86757,
        "lon": 7.52426,
        "region_id": "Belp",
        "is_virtual_station": true,
        "capacity": 7
      },
      {
        "station_id": "belp_belp_n_nenenweg_27_riedli_49a57b",
        "name": "Belp - Nünenenweg 27 / Riedli",
        "address": "Belp - Nünenenweg 27 / Riedli",
        "lat": 46.88065,
        "lon": 7.50683,
        "region_id": "Belp",
        "is_virtual_station": true,
        "capacity": 7
      },
      {
        "station_id": "belp_belp_g_rbeweg_26_9e8a53",
        "name": "Belp - Gürbeweg 26",
        "address": "Belp - Gürbeweg 26",
        "lat": 46.89286,
        "lon": 7.4956,
        "region_id": "Belp",
        "is_virtual_station": true,
        "capacity": 7
      },
      {
        "station_id": "belp_belp_birkenweg_44_2c0ead",
        "name": "Belp - Birkenweg 44",
        "address": "Belp - Birkenweg 44",
        "lat": 46.88516,
        "lon": 7.49668,
        "region_id": "Belp",
        "is_virtual_station": true,
        "capacity": 7
      },
      {
        "station_id": "belp_belp_breitmattweg_15_toffenholz_007ca1",
        "name": "Belp - Breitmattweg 15 / Toffenholz",
        "address": "Belp - Breitmattweg 15 / Toffenholz",
        "lat": 46.87754,
        "lon": 7.49495,
        "region_id": "Belp",
        "is_virtual_station": true,
        "capacity": 7
      },
      {
        "station_id": "belp_belp_br_ggstrasse_369a_4adff1",
        "name": "Belp - Brüggstrasse 369A ",
        "address": "Belp - Brüggstrasse 369A ",
        "lat": 46.88956,
        "lon": 7.53647,
        "region_id": "Belp",
        "is_virtual_station": true,
        "capacity": 7
      },
      {
        "station_id": "belp_belp_aeppenried_639a_2be349",
        "name": "Belp - Aeppenried 639A",
        "address": "Belp - Aeppenried 639A",
        "lat": 46.89688,
        "lon": 7.48631,
        "region_id": "Belp",
        "is_virtual_station": true,
        "capacity": 7
      },
      {
        "station_id": "belp_belp_bahnhofstrasse_8_bb1e31",
        "name": "Belp - Bahnhofstrasse 8",
        "address": "Belp - Bahnhofstrasse 8",
        "lat": 46.89076,
        "lon": 7.49825,
        "region_id": "Belp",
        "is_virtual_station": true,
        "capacity": 7
      },
      {
        "station_id": "belp_belp_weid_39_belpberg_f35db2",
        "name": "Belp - Weid 39 / Belpberg",
        "address": "Belp - Weid 39 / Belpberg",
        "lat": 46.87149,
        "lon": 7.51494,
        "region_id": "Belp",
        "is_virtual_station": true,
        "capacity": 7
      },
      {
        "station_id": "belp_belp_bl_emlisalpweg_52_9f6567",
        "name": "Belp - Blüemlisalpweg 52",
        "address": "Belp - Blüemlisalpweg 52",
        "lat": 46.89738,
        "lon": 7.50832,
        "region_id": "Belp",
        "is_virtual_station": true,
        "capacity": 7
      },
      {
        "station_id": "belp_belp_zelgweg_10_e5121c",
        "name": "Belp - Zelgweg 10",
        "address": "Belp - Zelgweg 10",
        "lat": 46.89738,
        "lon": 7.49573,
        "region_id": "Belp",
        "is_virtual_station": true,
        "capacity": 7
      },
      {
        "station_id": "belp_belp_bayweg_9_f3c528",
        "name": "Belp - Bayweg 9 ",
        "address": "Belp - Bayweg 9 ",
        "lat": 46.89522,
        "lon": 7.49488,
        "region_id": "Belp",
        "is_virtual_station": true,
        "capacity": 7
      },
      {
        "station_id": "belp_belp_hohburg_33_belpberg_89cd92",
        "name": "Belp - Hohburg 33 / Belpberg",
        "address": "Belp - Hohburg 33 / Belpberg",
        "lat": 46.87947,
        "lon": 7.5188,
        "region_id": "Belp",
        "is_virtual_station": true,
        "capacity": 7
      },
      {
        "station_id": "belp_belp_b_rglenweg_10_riedli_fb8a55",
        "name": "Belp - Bürglenweg 10 / Riedli",
        "address": "Belp - Bürglenweg 10 / Riedli",
        "lat": 46.88063,
        "lon": 7.50576,
        "region_id": "Belp",
        "is_virtual_station": true,
        "capacity": 7
      },
      {
        "station_id": "belp_belp_grubenstrasse_3_ff1a77",
        "name": "Belp - Grubenstrasse 3",
        "address": "Belp - Grubenstrasse 3",
        "lat": 46.89069,
        "lon": 7.49712,
        "region_id": "Belp",
        "is_virtual_station": true,
        "capacity": 7
      },
      {
        "station_id": "belp_belp_riedlistrasse_36_riedli_9176af",
        "name": "Belp - Riedlistrasse 36 / Riedli",
        "address": "Belp - Riedlistrasse 36 / Riedli",
        "lat": 46.87798,
        "lon": 7.50655,
        "region_id": "Belp",
        "is_virtual_station": true,
        "capacity": 7
      },
      {
        "station_id": "belp_belp_toffenholzweg_12_216554",
        "name": "Belp - Toffenholzweg 12",
        "address": "Belp - Toffenholzweg 12",
        "lat": 46.87687,
        "lon": 7.49404,
        "region_id": "Belp",
        "is_virtual_station": true,
        "capacity": 7
      },
      {
        "station_id": "belp_gerzensee_s_delstrasse_42_2fa09e",
        "name": "Gerzensee - Sädelstrasse 42",
        "address": "Gerzensee - Sädelstrasse 42",
        "lat": 46.84882,
        "lon": 7.52757,
        "region_id": "Belp",
        "is_virtual_station": true,
        "capacity": 7
      },
      {
        "station_id": "belp_belp_mittelstrasse_10a_c0af69",
        "name": "Belp - Mittelstrasse 10A",
        "address": "Belp - Mittelstrasse 10A",
        "lat": 46.8921,
        "lon": 7.50102,
        "region_id": "Belp",
        "is_virtual_station": true,
        "capacity": 7
      },
      {
        "station_id": "belp_belp_j_gerheimweg_275_d967a0",
        "name": "Belp - Jägerheimweg 275",
        "address": "Belp - Jägerheimweg 275",
        "lat": 46.8996,
        "lon": 7.51436,
        "region_id": "Belp",
        "is_virtual_station": true,
        "capacity": 7
      },
      {
        "station_id": "belp_belp_schloss_ortsmuseum_1fe849",
        "name": "Belp - Schloss / Ortsmuseum",
        "address": "Belp - Schloss / Ortsmuseum",
        "lat": 46.89149,
        "lon": 7.50021,
        "region_id": "Belp",
        "is_virtual_station": true,
        "capacity": 7
      },
      {
        "station_id": "belp_belp_muheimern_10_b47cd1",
        "name": "Belp - Muheimern 10",
        "address": "Belp - Muheimern 10",
        "lat": 46.87744,
        "lon": 7.48941,
        "region_id": "Belp",
        "is_virtual_station": true,
        "capacity": 7
      },
      {
        "station_id": "belp_belp_hof_25_belpberg_8efbb2",
        "name": "Belp - Hof 25 / Belpberg",
        "address": "Belp - Hof 25 / Belpberg",
        "lat": 46.87175,
        "lon": 7.52601,
        "region_id": "Belp",
        "is_virtual_station": true,
        "capacity": 7
      },
      {
        "station_id": "belp_belp_fehler_9410f8",
        "name": "Belp - FEHLER",
        "address": "Belp - FEHLER",
        "lat": 46.88371,
        "lon": 7.49455,
        "region_id": "Belp",
        "is_virtual_station": true,
        "capacity": 7
      },
      {
        "station_id": "belp_belp_seftigenstr_151_84714e",
        "name": "Belp - Seftigenstr. 151",
        "address": "Belp - Seftigenstr. 151",
        "lat": 46.88455,
        "lon": 7.49593,
        "region_id": "Belp",
        "is_virtual_station": true,
        "capacity": 7
      },
      {
        "station_id": "belp_belp_grill_and_chill_grillplatz_honegg_belpberg_881034",
        "name": "Belp - Grill and Chill - Grillplatz Honegg / Belpberg",
        "address": "Belp - Grill and Chill - Grillplatz Honegg / Belpberg",
        "lat": 46.86157,
        "lon": 7.52383,
        "region_id": "Belp",
        "is_virtual_station": true,
        "capacity": 7
      },
      {
        "station_id": "belp_belp_weierbodenweg_98_forsthaus_2cdf72",
        "name": "Belp - Weierbodenweg 98 /  Forsthaus",
        "address": "Belp - Weierbodenweg 98 /  Forsthaus",
        "lat": 46.86858,
        "lon": 7.509,
        "region_id": "Belp",
        "is_virtual_station": true,
        "capacity": 7
      },
      {
        "station_id": "belp_belp_giessenhof_952_a_ecc7b8",
        "name": "Belp - Giessenhof 952 A",
        "address": "Belp - Giessenhof 952 A",
        "lat": 46.91964,
        "lon": 7.49463,
        "region_id": "Belp",
        "is_virtual_station": true,
        "capacity": 7
      },
      {
        "station_id": "belp_belp_chutzen_belpberg_14e9dd",
        "name": "Belp - Chutzen / Belpberg",
        "address": "Belp - Chutzen / Belpberg",
        "lat": 46.85953,
        "lon": 7.52572,
        "region_id": "Belp",
        "is_virtual_station": true,
        "capacity": 7
      },
      {
        "station_id": "belp_belp_blockh_tte_predigerplatz_556d5e",
        "name": "Belp - Blockhütte Predigerplatz",
        "address": "Belp - Blockhütte Predigerplatz",
        "lat": 46.89477,
        "lon": 7.48896,
        "region_id": "Belp",
        "is_virtual_station": true,
        "capacity": 7
      },
      {
        "station_id": "belp_belp_steinbachstrasse_92_c3c836",
        "name": "Belp - Steinbachstrasse 92",
        "address": "Belp - Steinbachstrasse 92",
        "lat": 46.90251,
        "lon": 7.48343,
        "region_id": "Belp",
        "is_virtual_station": true,
        "capacity": 7
      },
      {
        "station_id": "belp_kehrsatz_heckenrain_7_498054",
        "name": "Kehrsatz - Heckenrain 7",
        "address": "Kehrsatz - Heckenrain 7",
        "lat": 46.91834,
        "lon": 7.47229,
        "region_id": "Belp",
        "is_virtual_station": true,
        "capacity": 7
      },
      {
        "station_id": "belp_kehrsatz_kindergarten_hagwiesenstrasse_27b7a9",
        "name": "Kehrsatz - Kindergarten Hagwiesenstrasse",
        "address": "Kehrsatz - Kindergarten Hagwiesenstrasse",
        "lat": 46.90624,
        "lon": 7.46612,
        "region_id": "Belp",
        "is_virtual_station": true,
        "capacity": 7
      },
      {
        "station_id": "belp_kehrsatz_kumenisches_zentrum_721204",
        "name": "Kehrsatz - ökumenisches Zentrum",
        "address": "Kehrsatz - ökumenisches Zentrum",
        "lat": 46.91253,
        "lon": 7.47314,
        "region_id": "Belp",
        "is_virtual_station": true,
        "capacity": 7
      },
      {
        "station_id": "belp_belp_neumattstrasse_33_schulhaus_neumatt_cd1394",
        "name": "Belp - Neumattstrasse 33 / Schulhaus Neumatt",
        "address": "Belp - Neumattstrasse 33 / Schulhaus Neumatt",
        "lat": 46.89884,
        "lon": 7.49885,
        "region_id": "Belp",
        "is_virtual_station": true,
        "capacity": 7
      },
      {
        "station_id": "belp_kehrsatz_bahnhof_5b7a6d",
        "name": "Kehrsatz - Bahnhof",
        "address": "Kehrsatz - Bahnhof",
        "lat": 46.90898,
        "lon": 7.47223,
        "region_id": "Belp",
        "is_virtual_station": true,
        "capacity": 7
      },
      {
        "station_id": "belp_belp_hohlen_40_zufahrt_belpberg_4c45f3",
        "name": "Belp - Hohlen 40, Zufahrt / Belpberg",
        "address": "Belp - Hohlen 40, Zufahrt / Belpberg",
        "lat": 46.86986,
        "lon": 7.51508,
        "region_id": "Belp",
        "is_virtual_station": true,
        "capacity": 7
      },
      {
        "station_id": "belp_belp_burgfeld_2_e50baf",
        "name": "Belp - Burgfeld 2",
        "address": "Belp - Burgfeld 2",
        "lat": 46.89084,
        "lon": 7.50989,
        "region_id": "Belp",
        "is_virtual_station": true,
        "capacity": 7
      },
      {
        "station_id": "belp_belp_hohburgstrasse_12b_a61775",
        "name": "Belp - Hohburgstrasse 12b",
        "address": "Belp - Hohburgstrasse 12b",
        "lat": 46.89044,
        "lon": 7.5039,
        "region_id": "Belp",
        "is_virtual_station": true,
        "capacity": 7
      },
      {
        "station_id": "belp_belp_j_gerheimweg_10_8fdbe2",
        "name": "Belp - Jägerheimweg 10",
        "address": "Belp - Jägerheimweg 10",
        "lat": 46.89137,
        "lon": 7.51864,
        "region_id": "Belp",
        "is_virtual_station": true,
        "capacity": 7
      },
      {
        "station_id": "belp_belp_fahrhubel_341_a7fe5d",
        "name": "Belp - Fahrhubel 341",
        "address": "Belp - Fahrhubel 341",
        "lat": 46.89176,
        "lon": 7.53007,
        "region_id": "Belp",
        "is_virtual_station": true,
        "capacity": 7
      },
      {
        "station_id": "belp_belp_montenachweg_1_7ed61c",
        "name": "Belp - Montenachweg 1",
        "address": "Belp - Montenachweg 1",
        "lat": 46.89084,
        "lon": 7.50606,
        "region_id": "Belp",
        "is_virtual_station": true,
        "capacity": 7
      },
      {
        "station_id": "belp_belp_omnia_physio_parking_7db616",
        "name": "Belp - OMNIA Physio Parking",
        "address": "Belp - OMNIA Physio Parking",
        "lat": 46.89011,
        "lon": 7.4984,
        "region_id": "Belp",
        "is_virtual_station": true,
        "capacity": 7
      },
      {
        "station_id": "belp_belp_seftigenstrasse_89_91_spital_altersheim_a8b68d",
        "name": "Belp - Seftigenstrasse 89/91 - Spital & Altersheim",
        "address": "Belp - Seftigenstrasse 89/91 - Spital & Altersheim",
        "lat": 46.89191,
        "lon": 7.49403,
        "region_id": "Belp",
        "is_virtual_station": true,
        "capacity": 7
      },
      {
        "station_id": "belp_belp_steinbachstrasse_28_0ce3fc",
        "name": "Belp - Steinbachstrasse 28",
        "address": "Belp - Steinbachstrasse 28",
        "lat": 46.8965,
        "lon": 7.49274,
        "region_id": "Belp",
        "is_virtual_station": true,
        "capacity": 7
      },
      {
        "station_id": "belp_belp_fahrhubelweg_29_063013",
        "name": "Belp - Fahrhubelweg 29",
        "address": "Belp - Fahrhubelweg 29",
        "lat": 46.89146,
        "lon": 7.52516,
        "region_id": "Belp",
        "is_virtual_station": true,
        "capacity": 7
      },
      {
        "station_id": "belp_belp_toffenholzweg_2_abzw_bernstrasse_931bfd",
        "name": "Belp - Toffenholzweg  2 / Abzw. Bernstrasse",
        "address": "Belp - Toffenholzweg  2 / Abzw. Bernstrasse",
        "lat": 46.87674,
        "lon": 7.49322,
        "region_id": "Belp",
        "is_virtual_station": true,
        "capacity": 7
      },
      {
        "station_id": "belp_belp_hofmatt_624_5c3605",
        "name": "Belp - Hofmatt 624",
        "address": "Belp - Hofmatt 624",
        "lat": 46.87979,
        "lon": 7.48438,
        "region_id": "Belp",
        "is_virtual_station": true,
        "capacity": 7
      },
      {
        "station_id": "belp_belp_flughafen_bern_belp_30c307",
        "name": "Belp - Flughafen Bern Belp",
        "address": "Belp - Flughafen Bern Belp",
        "lat": 46.91355,
        "lon": 7.50053,
        "region_id": "Belp",
        "is_virtual_station": true,
        "capacity": 7
      },
      {
        "station_id": "belp_belp_domicil_galactina_b622bd",
        "name": "Belp - Domicil Galactina",
        "address": "Belp - Domicil Galactina",
        "lat": 46.888509,
        "lon": 7.498498,
        "region_id": "Belp",
        "is_virtual_station": true,
        "capacity": 7
      },
      {
        "station_id": "belp_kehrsatz_finkenrain_4_dorfschulhaus_36c5d7",
        "name": "Kehrsatz - Finkenrain 4 / Dorfschulhaus",
        "address": "Kehrsatz - Finkenrain 4 / Dorfschulhaus",
        "lat": 46.91082,
        "lon": 7.47193,
        "region_id": "Belp",
        "is_virtual_station": true,
        "capacity": 7
      },
      {
        "station_id": "belp_belp_kefig_ssli_6_ae9509",
        "name": "Belp - Kefigässli 6",
        "address": "Belp - Kefigässli 6",
        "lat": 46.893008,
        "lon": 7.500208,
        "region_id": "Belp",
        "is_virtual_station": true,
        "capacity": 7
      },
      {
        "station_id": "belp_belp_hohburgstrasse_5_0a5f40",
        "name": "Belp - Hohburgstrasse 5",
        "address": "Belp - Hohburgstrasse 5",
        "lat": 46.89096,
        "lon": 7.50257,
        "region_id": "Belp",
        "is_virtual_station": true,
        "capacity": 7
      },
      {
        "station_id": "belp_belp_aemmenmattstrasse_43_78f9b3",
        "name": "Belp - Aemmenmattstrasse 43",
        "address": "Belp - Aemmenmattstrasse 43",
        "lat": 46.90138,
        "lon": 7.50465,
        "region_id": "Belp",
        "is_virtual_station": true,
        "capacity": 7
      },
      {
        "station_id": "belp_belp_steinbachstrasse_59_7d0f08",
        "name": "Belp - Steinbachstrasse 59",
        "address": "Belp - Steinbachstrasse 59",
        "lat": 46.89939,
        "lon": 7.48832,
        "region_id": "Belp",
        "is_virtual_station": true,
        "capacity": 7
      },
      {
        "station_id": "belp_belp_steinbachstrasse_47_7f959b",
        "name": "Belp - Steinbachstrasse 47",
        "address": "Belp - Steinbachstrasse 47",
        "lat": 46.89866,
        "lon": 7.4892,
        "region_id": "Belp",
        "is_virtual_station": true,
        "capacity": 7
      },
      {
        "station_id": "belp_belp_oberriedweg_2_b8d093",
        "name": "Belp - Oberriedweg 2",
        "address": "Belp - Oberriedweg 2",
        "lat": 46.89192,
        "lon": 7.4957,
        "region_id": "Belp",
        "is_virtual_station": true,
        "capacity": 7
      },
      {
        "station_id": "belp_belp_s_getstrasse_20_80bae3",
        "name": "Belp - Sägetstrasse 20",
        "address": "Belp - Sägetstrasse 20",
        "lat": 46.88674,
        "lon": 7.50017,
        "region_id": "Belp",
        "is_virtual_station": true,
        "capacity": 7
      },
      {
        "station_id": "belp_belp_dorfstrasse_20_9bc0a1",
        "name": "Belp - Dorfstrasse 20",
        "address": "Belp - Dorfstrasse 20",
        "lat": 46.89192,
        "lon": 7.49847,
        "region_id": "Belp",
        "is_virtual_station": true,
        "capacity": 7
      },
      {
        "station_id": "belp_belp_viehweidstrasse_62_eb8403",
        "name": "Belp - Viehweidstrasse 62",
        "address": "Belp - Viehweidstrasse 62",
        "lat": 46.88955,
        "lon": 7.52019,
        "region_id": "Belp",
        "is_virtual_station": true,
        "capacity": 7
      },
      {
        "station_id": "belp_belp_hohlestrasse_22_32_2227f1",
        "name": "Belp - Hohlestrasse 22-32",
        "address": "Belp - Hohlestrasse 22-32",
        "lat": 46.88861,
        "lon": 7.49669,
        "region_id": "Belp",
        "is_virtual_station": true,
        "capacity": 7
      },
      {
        "station_id": "belp_belp_dorfstrasse_6_apotheke_d5473e",
        "name": "Belp - Dorfstrasse 6 / Apotheke",
        "address": "Belp - Dorfstrasse 6 / Apotheke",
        "lat": 46.89353,
        "lon": 7.4983,
        "region_id": "Belp",
        "is_virtual_station": true,
        "capacity": 7
      },
      {
        "station_id": "belp_belp_talgut_425e_f23c73",
        "name": "Belp - Talgut 425e",
        "address": "Belp - Talgut 425e",
        "lat": 46.86929,
        "lon": 7.49817,
        "region_id": "Belp",
        "is_virtual_station": true,
        "capacity": 7
      },
      {
        "station_id": "belp_kehrsatz_eigerweg_18_24_2edf21",
        "name": "Kehrsatz - Eigerweg 18-24",
        "address": "Kehrsatz - Eigerweg 18-24",
        "lat": 46.916153,
        "lon": 7.470817,
        "region_id": "Belp",
        "is_virtual_station": true,
        "capacity": 7
      },
      {
        "station_id": "belp_belp_alpenweg_2_16_8b71ce",
        "name": "Belp - Alpenweg 2-16",
        "address": "Belp - Alpenweg 2-16",
        "lat": 46.898339,
        "lon": 7.507489,
        "region_id": "Belp",
        "is_virtual_station": true,
        "capacity": 7
      },
      {
        "station_id": "belp_belp_s_gemattstrasse_10_20_7549a9",
        "name": "Belp - Sägemattstrasse 10-20",
        "address": "Belp - Sägemattstrasse 10-20",
        "lat": 46.895476,
        "lon": 7.497191,
        "region_id": "Belp",
        "is_virtual_station": true,
        "capacity": 7
      },
      {
        "station_id": "belp_belp_lehn_14_7e9bb3",
        "name": "Belp - Lehn 14",
        "address": "Belp - Lehn 14",
        "lat": 46.885739,
        "lon": 7.525996,
        "region_id": "Belp",
        "is_virtual_station": true,
        "capacity": 7
      },
      {
        "station_id": "belp_belp_schwarzen_367_7c6504",
        "name": "Belp - Schwarzen 367",
        "address": "Belp - Schwarzen 367",
        "lat": 46.88464,
        "lon": 7.52649,
        "region_id": "Belp",
        "is_virtual_station": true,
        "capacity": 7
      },
      {
        "station_id": "belp_belp_rollmattstrasse_16_riedli_b79ca6",
        "name": "Belp - Rollmattstrasse 16 / Riedli",
        "address": "Belp - Rollmattstrasse 16 / Riedli",
        "lat": 46.87989,
        "lon": 7.50571,
        "region_id": "Belp",
        "is_virtual_station": true,
        "capacity": 7
      },
      {
        "station_id": "belp_belp_harzern_43_belpberg_331948",
        "name": "Belp - Harzern 43 / Belpberg",
        "address": "Belp - Harzern 43 / Belpberg",
        "lat": 46.85767,
        "lon": 7.521248,
        "region_id": "Belp",
        "is_virtual_station": true,
        "capacity": 7
      },
      {
        "station_id": "belp_belp_zelgweg_25_8956e0",
        "name": "Belp - Zelgweg 25",
        "address": "Belp - Zelgweg 25",
        "lat": 46.898667,
        "lon": 7.493996,
        "region_id": "Belp",
        "is_virtual_station": true,
        "capacity": 7
      },
      {
        "station_id": "belp_kehrsatz_gemeindeverwaltung_8d0d17",
        "name": "Kehrsatz - Gemeindeverwaltung",
        "address": "Kehrsatz - Gemeindeverwaltung",
        "lat": 46.909139,
        "lon": 7.46951,
        "region_id": "Belp",
        "is_virtual_station": true,
        "capacity": 7
      },
      {
        "station_id": "belp_kehrsatz_bernstrasse_17_b9142a",
        "name": "Kehrsatz - Bernstrasse 17",
        "address": "Kehrsatz - Bernstrasse 17",
        "lat": 46.911018,
        "lon": 7.470597,
        "region_id": "Belp",
        "is_virtual_station": true,
        "capacity": 7
      },
      {
        "station_id": "belp_kehrsatz_unterer_breitenacker_3_336a25",
        "name": "Kehrsatz - Unterer Breitenacker 3",
        "address": "Kehrsatz - Unterer Breitenacker 3",
        "lat": 46.916672,
        "lon": 7.466092,
        "region_id": "Belp",
        "is_virtual_station": true,
        "capacity": 7
      },
      {
        "station_id": "belp_kehrsatz_zimmerwaldstrasse_7_2e4732",
        "name": "Kehrsatz - Zimmerwaldstrasse 7",
        "address": "Kehrsatz - Zimmerwaldstrasse 7",
        "lat": 46.909138,
        "lon": 7.470077,
        "region_id": "Belp",
        "is_virtual_station": true,
        "capacity": 7
      },
      {
        "station_id": "belp_kehrsatz_bernstrasse_1_11b8b7",
        "name": "Kehrsatz - Bernstrasse 1",
        "address": "Kehrsatz - Bernstrasse 1",
        "lat": 46.909892,
        "lon": 7.470833,
        "region_id": "Belp",
        "is_virtual_station": true,
        "capacity": 7
      },
      {
        "station_id": "belp_kehrsatz_bernstrasse_70_90314f",
        "name": "Kehrsatz - Bernstrasse 70",
        "address": "Kehrsatz - Bernstrasse 70",
        "lat": 46.915162,
        "lon": 7.468135,
        "region_id": "Belp",
        "is_virtual_station": true,
        "capacity": 7
      },
      {
        "station_id": "belp_kehrsatz_weidliweg_2_e15421",
        "name": "Kehrsatz - Weidliweg 2",
        "address": "Kehrsatz - Weidliweg 2",
        "lat": 46.90931,
        "lon": 7.468059,
        "region_id": "Belp",
        "is_virtual_station": true,
        "capacity": 7
      },
      {
        "station_id": "belp_kehrsatz_belpstrasse_30_71a424",
        "name": "Kehrsatz - Belpstrasse 30",
        "address": "Kehrsatz - Belpstrasse 30",
        "lat": 46.907525,
        "lon": 7.47507,
        "region_id": "Belp",
        "is_virtual_station": true,
        "capacity": 7
      },
      {
        "station_id": "belp_kehrsatz_bernstrasse_79b_357bff",
        "name": "Kehrsatz - Bernstrasse 79B",
        "address": "Kehrsatz - Bernstrasse 79B",
        "lat": 46.9145641,
        "lon": 7.4682249,
        "region_id": "Belp",
        "is_virtual_station": true,
        "capacity": 7
      },
      {
        "station_id": "belp_kehrsatz_gurtenstrasse_5_4a08ac",
        "name": "Kehrsatz - Gurtenstrasse 5",
        "address": "Kehrsatz - Gurtenstrasse 5",
        "lat": 46.908081,
        "lon": 7.464181,
        "region_id": "Belp",
        "is_virtual_station": true,
        "capacity": 7
      },
      {
        "station_id": "belp_kehrsatz_gurtenstrasse_69_87545d",
        "name": "Kehrsatz - Gurtenstrasse 69",
        "address": "Kehrsatz - Gurtenstrasse 69",
        "lat": 46.911009,
        "lon": 7.463261,
        "region_id": "Belp",
        "is_virtual_station": true,
        "capacity": 7
      },
      {
        "station_id": "belp_kehrsatz_leiserenweg_2_9bf104",
        "name": "Kehrsatz - Leiserenweg 2",
        "address": "Kehrsatz - Leiserenweg 2",
        "lat": 46.909166,
        "lon": 7.465433,
        "region_id": "Belp",
        "is_virtual_station": true,
        "capacity": 7
      },
      {
        "station_id": "belp_kehrsatz_breit_gerternstrasse_11_e2dc95",
        "name": "Kehrsatz - Breitägerternstrasse 11",
        "address": "Kehrsatz - Breitägerternstrasse 11",
        "lat": 46.909275,
        "lon": 7.463691,
        "region_id": "Belp",
        "is_virtual_station": true,
        "capacity": 7
      },
      {
        "station_id": "belp_kehrsatz_flurmattweg_20_36bde6",
        "name": "Kehrsatz - Flurmattweg 20",
        "address": "Kehrsatz - Flurmattweg 20",
        "lat": 46.910304,
        "lon": 7.465556,
        "region_id": "Belp",
        "is_virtual_station": true,
        "capacity": 7
      },
      {
        "station_id": "belp_kehrsatz_talstrasse_b2c49d",
        "name": "Kehrsatz - Talstrasse ",
        "address": "Kehrsatz - Talstrasse ",
        "lat": 46.907124,
        "lon": 7.459046,
        "region_id": "Belp",
        "is_virtual_station": true,
        "capacity": 7
      },
      {
        "station_id": "belp_kehrsatz_talstrasse_49_9bd2a0",
        "name": "Kehrsatz - Talstrasse 49",
        "address": "Kehrsatz - Talstrasse 49",
        "lat": 46.90733,
        "lon": 7.46096,
        "region_id": "Belp",
        "is_virtual_station": true,
        "capacity": 7
      },
      {
        "station_id": "belp_kehrsatz_hagwiesenstrasse_umkehrplatz_620f64",
        "name": "Kehrsatz - Hagwiesenstrasse Umkehrplatz",
        "address": "Kehrsatz - Hagwiesenstrasse Umkehrplatz",
        "lat": 46.905598,
        "lon": 7.467887,
        "region_id": "Belp",
        "is_virtual_station": true,
        "capacity": 7
      },
      {
        "station_id": "belp_kehrsatz_h_ngelenstrasse_parkplatz_d01f9c",
        "name": "Kehrsatz - Hängelenstrasse Parkplatz",
        "address": "Kehrsatz - Hängelenstrasse Parkplatz",
        "lat": 46.904311,
        "lon": 7.469903,
        "region_id": "Belp",
        "is_virtual_station": true,
        "capacity": 7
      },
      {
        "station_id": "belp_kehrsatz_k_hlewil_358b32",
        "name": "Kehrsatz - Kühlewil",
        "address": "Kehrsatz - Kühlewil",
        "lat": 46.900743,
        "lon": 7.458737,
        "region_id": "Belp",
        "is_virtual_station": true,
        "capacity": 7
      },
      {
        "station_id": "belp_kehrsatz_abzw_l_ngenbergstrasse_3b5041",
        "name": "Kehrsatz - Abzw. Längenbergstrasse",
        "address": "Kehrsatz - Abzw. Längenbergstrasse",
        "lat": 46.902694,
        "lon": 7.473331,
        "region_id": "Belp",
        "is_virtual_station": true,
        "capacity": 7
      },
      {
        "station_id": "belp_kehrsatz_nesslerenstrasse_20_e6193c",
        "name": "Kehrsatz - Nesslerenstrasse 20",
        "address": "Kehrsatz - Nesslerenstrasse 20",
        "lat": 46.922137,
        "lon": 7.466891,
        "region_id": "Belp",
        "is_virtual_station": true,
        "capacity": 7
      },
      {
        "station_id": "belp_kehrsatz_unterer_breitenacker_6_660495",
        "name": "Kehrsatz - Unterer Breitenacker 6",
        "address": "Kehrsatz - Unterer Breitenacker 6",
        "lat": 46.919205,
        "lon": 7.467123,
        "region_id": "Belp",
        "is_virtual_station": true,
        "capacity": 7
      },
      {
        "station_id": "belp_kehrsatz_nesslerenstrasse_10_4fe316",
        "name": "Kehrsatz - Nesslerenstrasse 10",
        "address": "Kehrsatz - Nesslerenstrasse 10",
        "lat": 46.922088,
        "lon": 7.469214,
        "region_id": "Belp",
        "is_virtual_station": true,
        "capacity": 7
      },
      {
        "station_id": "belp_kehrsatz_grillplatz_buechw_ldli_fb72f5",
        "name": "Kehrsatz - Grillplatz Buechwäldli",
        "address": "Kehrsatz - Grillplatz Buechwäldli",
        "lat": 46.920865,
        "lon": 7.472292,
        "region_id": "Belp",
        "is_virtual_station": true,
        "capacity": 7
      },
      {
        "station_id": "belp_kehrsatz_ahornweg_sandb_hl_c26435",
        "name": "Kehrsatz - Ahornweg/Sandbühl",
        "address": "Kehrsatz - Ahornweg/Sandbühl",
        "lat": 46.918984,
        "lon": 7.473535,
        "region_id": "Belp",
        "is_virtual_station": true,
        "capacity": 7
      },
      {
        "station_id": "belp_kehrsatz_sandb_hlstrasse_40_bc0e92",
        "name": "Kehrsatz - Sandbühlstrasse 40",
        "address": "Kehrsatz - Sandbühlstrasse 40",
        "lat": 46.919644,
        "lon": 7.471853,
        "region_id": "Belp",
        "is_virtual_station": true,
        "capacity": 7
      },
      {
        "station_id": "belp_kehrsatz_stockackerstrasse_19_6a6ac8",
        "name": "Kehrsatz - Stockackerstrasse 19",
        "address": "Kehrsatz - Stockackerstrasse 19",
        "lat": 46.918253,
        "lon": 7.468259,
        "region_id": "Belp",
        "is_virtual_station": true,
        "capacity": 7
      },
      {
        "station_id": "belp_kehrsatz_bantigerweg_kehrplatz_4e72fb",
        "name": "Kehrsatz - Bantigerweg Kehrplatz",
        "address": "Kehrsatz - Bantigerweg Kehrplatz",
        "lat": 46.916832,
        "lon": 7.46808,
        "region_id": "Belp",
        "is_virtual_station": true,
        "capacity": 7
      },
      {
        "station_id": "belp_kehrsatz_bernstrasse_63_1263c6",
        "name": "Kehrsatz - Bernstrasse 63",
        "address": "Kehrsatz - Bernstrasse 63",
        "lat": 46.91336,
        "lon": 7.468642,
        "region_id": "Belp",
        "is_virtual_station": true,
        "capacity": 7
      },
      {
        "station_id": "belp_kehrsatz_bleikenmattstrasse_9_93c6cd",
        "name": "Kehrsatz - Bleikenmattstrasse 9",
        "address": "Kehrsatz - Bleikenmattstrasse 9",
        "lat": 46.913099,
        "lon": 7.471886,
        "region_id": "Belp",
        "is_virtual_station": true,
        "capacity": 7
      },
      {
        "station_id": "belp_kehrsatz_flugplatzstrasse_29_4dd754",
        "name": "Kehrsatz - Flugplatzstrasse 29",
        "address": "Kehrsatz - Flugplatzstrasse 29",
        "lat": 46.912434,
        "lon": 7.474498,
        "region_id": "Belp",
        "is_virtual_station": true,
        "capacity": 7
      },
      {
        "station_id": "belp_kehrsatz_selnhofen_32_283bac",
        "name": "Kehrsatz - Selnhofen 32",
        "address": "Kehrsatz - Selnhofen 32",
        "lat": 46.917552,
        "lon": 7.477201,
        "region_id": "Belp",
        "is_virtual_station": true,
        "capacity": 7
      },
      {
        "station_id": "belp_kehrsatz_selhofen_41_7b68c1",
        "name": "Kehrsatz - Selhofen 41",
        "address": "Kehrsatz - Selhofen 41",
        "lat": 46.91997,
        "lon": 7.479045,
        "region_id": "Belp",
        "is_virtual_station": true,
        "capacity": 7
      },
      {
        "station_id": "belp_kehrsatz_selhofen_45_272c5e",
        "name": "Kehrsatz - Selhofen 45",
        "address": "Kehrsatz - Selhofen 45",
        "lat": 46.92055,
        "lon": 7.480652,
        "region_id": "Belp",
        "is_virtual_station": true,
        "capacity": 7
      },
      {
        "station_id": "belp_kehrsatz_selhofen_46_6d8b5c",
        "name": "Kehrsatz - Selhofen 46",
        "address": "Kehrsatz - Selhofen 46",
        "lat": 46.920561,
        "lon": 7.482225,
        "region_id": "Belp",
        "is_virtual_station": true,
        "capacity": 7
      },
      {
        "station_id": "belp_kehrsatz_schlossweg_10_efee6b",
        "name": "Kehrsatz - Schlossweg 10",
        "address": "Kehrsatz - Schlossweg 10",
        "lat": 46.911663,
        "lon": 7.475574,
        "region_id": "Belp",
        "is_virtual_station": true,
        "capacity": 7
      },
      {
        "station_id": "belp_kehrsatz_flugplatzstrasse_80_33c351",
        "name": "Kehrsatz - Flugplatzstrasse 80",
        "address": "Kehrsatz - Flugplatzstrasse 80",
        "lat": 46.912766,
        "lon": 7.478441,
        "region_id": "Belp",
        "is_virtual_station": true,
        "capacity": 7
      },
      {
        "station_id": "belp_kehrsatz_familiengarten_selhofen_c5aec7",
        "name": "Kehrsatz - Familiengarten Selhofen",
        "address": "Kehrsatz - Familiengarten Selhofen",
        "lat": 46.917894,
        "lon": 7.47919,
        "region_id": "Belp",
        "is_virtual_station": true,
        "capacity": 7
      },
      {
        "station_id": "belp_belp_moos_8_4b6b4b",
        "name": "Belp - Moos 8",
        "address": "Belp - Moos 8",
        "lat": 46.917375,
        "lon": 7.486868,
        "region_id": "Belp",
        "is_virtual_station": true,
        "capacity": 7
      },
      {
        "station_id": "belp_kehrsatz_lohnweg_13_362a63",
        "name": "Kehrsatz - Lohnweg 13",
        "address": "Kehrsatz - Lohnweg 13",
        "lat": 46.908238,
        "lon": 7.475867,
        "region_id": "Belp",
        "is_virtual_station": true,
        "capacity": 7
      },
      {
        "station_id": "belp_kehrsatz_eigerweg_kehrplatz_e8d259",
        "name": "Kehrsatz - Eigerweg Kehrplatz",
        "address": "Kehrsatz - Eigerweg Kehrplatz",
        "lat": 46.917041,
        "lon": 7.470609,
        "region_id": "Belp",
        "is_virtual_station": true,
        "capacity": 7
      },
      {
        "station_id": "belp_kehrsatz_fluhmattweg_43_3785fd",
        "name": "Kehrsatz - Fluhmattweg 43",
        "address": "Kehrsatz - Fluhmattweg 43",
        "lat": 46.911714,
        "lon": 7.465927,
        "region_id": "Belp",
        "is_virtual_station": true,
        "capacity": 7
      },
      {
        "station_id": "belp_thurnen_abzw_m_slistrasse_9fb5ac",
        "name": "Thurnen - Abzw. Möslistrasse",
        "address": "Thurnen - Abzw. Möslistrasse",
        "lat": 46.824665,
        "lon": 7.497174,
        "region_id": "Belp",
        "is_virtual_station": true,
        "capacity": 7
      },
      {
        "station_id": "belp_kirchenthurnen_m_slistrasse_8_59bf30",
        "name": "Kirchenthurnen - Möslistrasse 8",
        "address": "Kirchenthurnen - Möslistrasse 8",
        "lat": 46.823563,
        "lon": 7.500638,
        "region_id": "Belp",
        "is_virtual_station": true,
        "capacity": 7
      },